jiscode,name,namekana,building,zipcode,address,tel,source,lat,lon,note
1000,北海道,ほっかいどう,北海道庁,060-8588,札幌市中央区北3条西6-1,011-231-4111,数値地図,43.064278,141.346785,
1100,札幌市,さっぽろし,札幌市役所,060-8611,札幌市中央区北1条西2丁目,011-211-2111,数値地図,43.061945,141.354395,
1101,札幌市中央区,さっぽろしちゅうおうく,中央区役所,060-8612,札幌市中央区南3条西11丁目,011-231-2400,数値地図,43.05539,141.34098,
1102,札幌市北区,さっぽろしきたく,北区役所,001-8612,札幌市北区北24条西6丁目1-1,011-757-2400,数値地図,43.090691,141.340922,
1103,札幌市東区,さっぽろしひがしく,東区役所,065-8612,札幌市東区北11条東7丁目1-1,011-741-2400,数値地図,43.076111,141.363616,
1104,札幌市白石区,さっぽろししろいしく,白石区役所,003-8612,札幌市白石区南郷通1丁目南8-1,011-861-2400,Google Maps,43.045445,141.396378,新庁舎
1105,札幌市豊平区,さっぽろしとよひらく,豊平区役所,062-8612,札幌市豊平区平岸6条10丁目1-1,011-822-2400,数値地図,43.031366,141.379978,
1106,札幌市南区,さっぽろしみなみく,南区役所,005-8612,札幌市南区真駒内幸町2丁目2-1,011-582-2400,数値地図,42.989953,141.353372,
1107,札幌市西区,さっぽろしにしく,西区役所,063-8612,札幌市西区琴似2条7丁目1-1,011-641-2400,数値地図,43.074358,141.300899,
1108,札幌市厚別区,さっぽろしあつべつく,厚別区役所,004-8612,札幌市厚別区厚別中央1条5丁目3-2,011-895-2400,数値地図,43.036146,141.474747,
1109,札幌市手稲区,さっぽろしていねく,手稲区役所,006-8612,札幌市手稲区前田1条11丁目1-10,011-681-2400,数値地図,43.121851,141.245651,
1110,札幌市清田区,さっぽろしきよたく,清田区役所,004-8613,札幌市清田区平岡1条1丁目2-1,011-889-2400,数値地図,42.999538,141.443891,
1202,函館市,はこだてし,函館市役所,040-8666,函館市東雲町4-13,0138-21-3111,数値地図,41.768679,140.729127,
1203,小樽市,おたるし,小樽市役所,047-8660,小樽市花園2-12-1,0134-32-4111,数値地図,43.190808,140.994309,
1204,旭川市,あさひかわし,旭川市役所,070-8525,旭川市6条通9丁目,0166-26-1111,数値地図,43.770846,142.364852,
1205,室蘭市,むろらんし,室蘭市役所,051-8511,室蘭市幸町1-2,0143-22-1111,数値地図,42.315208,140.973632,
1206,釧路市,くしろし,釧路市役所,085-8505,釧路市黒金町7-5,0154-23-5151,数値地図,42.984834,144.381688,
1207,帯広市,おびひろし,帯広市役所,080-8670,帯広市西5条南7-1,0155-24-4111,数値地図,42.923691,143.196577,
1208,北見市,きたみし,北見市役所,090-8509,北見市大通西2丁目1番地 まちきた大通ビル,0157-23-7111,Google Maps,43.803993,143.895729,仮設庁舎
1209,夕張市,ゆうばりし,夕張市役所,068-0492,夕張市本町4-2,0123-52-3131,数値地図,43.056825,141.973979,
1210,岩見沢市,いわみざわし,岩見沢市役所,068-8686,岩見沢市鳩が丘1-1-1,0126-23-4111,数値地図,43.196194,141.775852,
1211,網走市,あばしりし,網走市役所,093-8555,網走市南6条東4丁目,0152-44-6111,数値地図,44.020626,144.273489,
1212,留萌市,るもいし,留萌市役所,077-8601,留萌市幸町1-11,0164-42-1801,数値地図,43.940969,141.63685,
1213,苫小牧市,とまこまいし,苫小牧市役所,053-8722,苫小牧市旭町4-5-6,0144-32-6111,数値地図,42.634085,141.60551,
1214,稚内市,わっかないし,稚内市役所,097-8686,稚内市中央3-13-15,0162-23-6161,数値地図,45.415553,141.673146,
1215,美唄市,びばいし,美唄市役所,072-8660,美唄市西3条南1-1-1,0126-62-3131,数値地図,43.332986,141.854003,
1216,芦別市,あしべつし,芦別市役所,075-8711,芦別市北1条東1-3,0124-22-2111,数値地図,43.518199,142.189544,
1217,江別市,えべつし,江別市役所,067-8674,江別市高砂町6,011-382-4141,数値地図,43.103613,141.535988,
1218,赤平市,あかびらし,赤平市役所,079-1192,赤平市泉町4-1,0125-32-2211,数値地図,43.557968,142.044169,
1219,紋別市,もんべつし,紋別市役所,094-8707,紋別市幸町2-1-18,0158-24-2111,数値地図,44.356484,143.354067,
1220,士別市,しべつし,士別市役所,095-8686,士別市東6条4-1,0165-23-3121,数値地図,44.178664,142.400461,
1221,名寄市,なよろし,名寄市役所,096-8686,名寄市大通南1-1,01654-3-2111,数値地図,44.35584,142.463195,
1222,三笠市,みかさし,三笠市役所,068-2192,三笠市幸町2,01267-2-3181,数値地図,43.245802,141.875619,
1223,根室市,ねむろし,根室市役所,087-8711,根室市常盤町2-27,0153-23-6111,数値地図,43.329998,145.582953,
1224,千歳市,ちとせし,千歳市役所,066-8686,千歳市東雲町2-34,0123-24-3131,数値地図,42.82151,141.651075,
1225,滝川市,たきかわし,滝川市役所,073-8686,滝川市大町1-2-15,0125-23-1234,数値地図,43.557741,141.910458,
1226,砂川市,すながわし,砂川市役所,073-0195,砂川市西6条北3-1-1,0125-54-2121,数値地図,43.494748,141.903492,
1227,歌志内市,うたしないし,歌志内市役所,073-0492,歌志内市字本町5,0125-42-3212,数値地図,43.52161,142.035285,
1228,深川市,ふかがわし,深川市役所,074-8650,深川市2条17-17,0164-26-2228,数値地図,43.723257,142.053576,
1229,富良野市,ふらのし,富良野市役所,076-8555,富良野市弥生町1-1,0167-39-2300,数値地図,43.341919,142.383205,
1230,登別市,のぼりべつし,登別市役所,059-8701,登別市中央町6-11,0143-85-2111,数値地図,42.412732,141.106562,
1231,恵庭市,えにわし,恵庭市役所,061-1498,恵庭市京町1,0123-33-3131,数値地図,42.882472,141.577912,
1233,伊達市,だてし,伊達市役所,052-0024,伊達市鹿島町20-1,0142-23-3331,数値地図,42.471915,140.864745,
1234,北広島市,きたひろしまし,北広島市役所,061-1192,北広島市中央4-2-1,011-372-3311,数値地図,42.986821,141.563659,
1235,石狩市,いしかりし,石狩市役所,061-3292,石狩市花川北6条1-30-2,0133-72-3111,数値地図,43.171348,141.31542,
1236,北斗市,ほくとし,北斗市役所,049-0192,北斗市中央1-3-10,0138-73-3111,数値地図,41.824143,140.652908,
1303,当別町,とうべつちょう,当別町役場,061-0292,石狩郡当別町白樺町58-9,0133-23-2330,数値地図,43.223821,141.517094,
1304,新篠津村,しんしのつむら,新篠津村役場,068-1192,石狩郡新篠津村第47線北13,0126-57-2111,数値地図,43.225271,141.649305,
1331,松前町,まつまえちょう,松前町役場,049-1592,松前郡松前町字福山248,0139-42-2275,数値地図,41.430033,140.110498,
1332,福島町,ふくしまちょう,福島町役場,049-1392,松前郡福島町字福島820,0139-47-3001,数値地図,41.483613,140.251317,
1333,知内町,しりうちちょう,知内町役場,049-1103,上磯郡知内町字重内21-1,01392-5-6161,数値地図,41.598356,140.418854,
1334,木古内町,きこないちょう,木古内町役場,049-0422,上磯郡木古内町字本町218,01392-2-3131,数値地図,41.678402,140.437626,
1337,七飯町,ななえちょう,七飯町役場,041-1192,亀田郡七飯町本町6丁目1-1,0138-65-2511,数値地図,41.895692,140.694374,
1343,鹿部町,しかべちょう,鹿部町役場,041-1498,茅部郡鹿部町字宮浜299,01372-7-2111,数値地図,42.038598,140.815914,
1345,森町,もりまち,森町役場,049-2393,茅部郡森町字御幸町144-1,01374-2-2181,数値地図,42.104972,140.576481,
1346,八雲町,やくもちょう,八雲町役場,049-3192,二海郡八雲町住初町138,0137-62-2111,数値地図,42.25589,140.26525,
1347,長万部町,おしゃまんべちょう,長万部町役場,049-3592,山越郡長万部町字長万部453-1,01377-2-2000,数値地図,42.514005,140.380866,
1361,江差町,えさしちょう,江差町役場,043-8560,檜山郡江差町字中歌町193-1,0139-52-1020,数値地図,41.869289,140.127616,
1362,上ノ国町,かみのくにちょう,上ノ国町役場,049-0698,檜山郡上ノ国町字大留100,0139-55-2311,数値地図,41.800825,140.120342,
1363,厚沢部町,あっさぶちょう,厚沢部町役場,043-1113,檜山郡厚沢部町新町207,0139-64-3311,数値地図,41.92098,140.225327,
1364,乙部町,おとべちょう,乙部町役場,043-0103,爾志郡乙部町字緑町388,0139-62-2311,数値地図,41.968611,140.135472,
1367,奥尻町,おくしりちょう,奥尻町役場,043-1498,奥尻郡奥尻町字奥尻806,01397-2-3111,数値地図,42.172292,139.514152,
1370,今金町,いまかねちょう,今金町役場,049-4393,瀬棚郡今金町字今金48-1,0137-82-0111,数値地図,42.429363,140.008705,
1371,せたな町,せたなちょう,せたな町役場,049-4592,久遠郡せたな町北檜山区徳島63-1,0137-84-5111,数値地図,42.414861,139.876243,
1391,島牧村,しままきむら,島牧村役場,048-0621,島牧郡島牧村字泊83-1,0136-75-6211,数値地図,42.700498,140.061481,
1392,寿都町,すっつちょう,寿都町役場,048-0406,寿都郡寿都町字渡島町140-1,0136-62-2511,数値地図,42.791053,140.228782,
1393,黒松内町,くろまつないちょう,黒松内町役場,048-0192,寿都郡黒松内町字黒松内302-1,0136-72-3311,数値地図,42.667792,140.307781,
1394,蘭越町,らんこしちょう,蘭越町役場,048-1392,磯谷郡蘭越町蘭越町258-5,0136-57-5111,数値地図,42.809225,140.528367,
1395,ニセコ町,にせこちょう,ニセコ町役場,048-1595,虻田郡ニセコ町字富士見47,0136-44-2121,数値地図,42.804841,140.687548,
1396,真狩村,まっかりむら,真狩村役場,048-1631,虻田郡真狩村字真狩118,0136-45-2121,数値地図,42.763015,140.803541,
1397,留寿都村,るすつむら,留寿都村役場,048-1731,虻田郡留寿都村字留寿都175,0136-46-3131,数値地図,42.73741,140.875619,
1398,喜茂別町,きもべつちょう,喜茂別町役場,044-0292,虻田郡喜茂別町字喜茂別123,0136-33-2211,数値地図,42.795405,140.934611,
1399,京極町,きょうごくちょう,京極町役場,044-0101,虻田郡京極町字京極527,0136-42-2111,数値地図,42.85823,140.884057,
1400,倶知安町,くっちゃんちょう,倶知安町役場,044-0001,虻田郡倶知安町北1条東3-3,0136-22-1121,数値地図,42.901721,140.759037,
1401,共和町,きょうわちょう,共和町役場,048-2292,岩内郡共和町南幌似38-2,0135-73-2011,数値地図,42.980403,140.611239,
1402,岩内町,いわないちょう,岩内町役場,045-8555,岩内郡岩内町字高台134-1,0135-62-1011,Google Maps,42.979761,140.514773,
1403,泊村,とまりむら,泊村役場,045-0202,古宇郡泊村大字茅沼村字臼別191-7,0135-75-2021,数値地図,43.063029,140.49902,
1404,神恵内村,かもえないむら,神恵内村役場,045-0301,古宇郡神恵内村大字神恵内村81-4,0135-76-5011,数値地図,43.143879,140.430826,
1405,積丹町,しゃこたんちょう,積丹町役場,046-0292,積丹郡積丹町大字美国町字船澗48,0135-44-2111,数値地図,43.299064,140.598331,
1406,古平町,ふるびらちょう,古平町役場,046-0192,古平郡古平町大字浜町40-4,0135-42-2181,数値地図,43.265484,140.638941,
1407,仁木町,にきちょう,仁木町役場,048-2492,余市郡仁木町西町1-36-1,0135-32-2511,数値地図,43.154638,140.764132,
1408,余市町,よいちちょう,余市町役場,046-8546,余市郡余市町朝日町26,0135-21-2111,数値地図,43.195329,140.783572,
1409,赤井川村,あかいがわむら,赤井川村役場,046-0592,余市郡赤井川村字赤井川74-2,0135-34-6211,数値地図,43.083537,140.813577,
1423,南幌町,なんぽろちょう,南幌町役場,069-0292,空知郡南幌町栄町3-2-1,011-378-2121,数値地図,43.063704,141.650257,
1424,奈井江町,ないえちょう,奈井江町役場,079-0392,空知郡奈井江町字奈井江11,0125-65-2111,数値地図,43.425311,141.882888,
1425,上砂川町,かみすながわちょう,上砂川町役場,073-0292,空知郡上砂川町中央北1条5丁目1-7,0125-62-2011,数値地図画像,43.48267,141.984078,
1427,由仁町,ゆにちょう,由仁町役場,069-1292,夕張郡由仁町新光200,0123-83-2111,数値地図,42.999549,141.790359,
1428,長沼町,ながぬまちょう,長沼町役場,069-1392,夕張郡長沼町中央北1-1-1,0123-88-2111,数値地図,43.010378,141.695396,
1429,栗山町,くりやまちょう,栗山町役場,069-1512,夕張郡栗山町松風3-252,0123-72-1111,数値地図,43.056292,141.784163,
1430,月形町,つきがたちょう,月形町役場,061-0592,樺戸郡月形町1219,0126-53-2321,数値地図,43.338397,141.669604,
1431,浦臼町,うらうすちょう,浦臼町役場,061-0692,樺戸郡浦臼町字ウラウスナイ183-15,0125-68-2111,数値地図,43.430447,141.818919,
1432,新十津川町,しんとつかわちょう,新十津川町役場,073-1103,樺戸郡新十津川町字中央301-1,0125-76-2131,数値地図,43.548492,141.877073,
1433,妹背牛町,もせうしちょう,妹背牛町役場,079-0592,雨竜郡妹背牛町字妹背牛5200,0164-32-2411,数値地図,43.70034,141.962058,
1434,秩父別町,ちっぷべつちょう,秩父別町役場,078-2192,雨竜郡秩父別町4101,0164-33-2111,数値地図,43.766999,141.958499,
1436,雨竜町,うりゅうちょう,雨竜町役場,078-2692,雨竜郡雨竜町字フシコウリウ104,0125-77-2211,数値地図,43.643954,141.889012,
1437,北竜町,ほくりゅうちょう,北竜町役場,078-2512,雨竜郡北竜町字和11-1,0164-34-2111,数値地図,43.731472,141.879147,
1438,沼田町,ぬまたちょう,沼田町役場,078-2202,雨竜郡沼田町南1条3-6-53,0164-35-2111,数値地図,43.806744,141.933443,
1452,鷹栖町,たかすちょう,鷹栖町役場,071-1292,上川郡鷹栖町南1条3丁目5番1号,0166-87-2111,数値地図,43.84331,142.354403,
1453,東神楽町,ひがしかぐらちょう,東神楽町役場,071-1592,上川郡東神楽町南1条西1丁目3-2,0166-83-2111,数値地図,43.696276,142.451653,
1454,当麻町,とうまちょう,当麻町役場,078-1393,上川郡当麻町3条東2丁目11-1,0166-84-2111,数値地図,43.828123,142.508418,
1455,比布町,ぴっぷちょう,比布町役場,078-0392,上川郡比布町北町1-2-1,0166-85-2111,数値地図,43.875006,142.477695,
1456,愛別町,あいべつちょう,愛別町役場,078-1492,上川郡愛別町字本町179,01658-6-5111,数値地図,43.906561,142.578073,
1457,上川町,かみかわちょう,上川町役場,078-1753,上川郡上川町南町180,01658-2-1211,数値地図,43.847102,142.77045,
1458,東川町,ひがしかわちょう,東川町役場,071-1492,上川郡東川町東町1-16-1,0166-82-2111,数値地図,43.698916,142.510091,
1459,美瑛町,びえいちょう,美瑛町役場,071-0292,上川郡美瑛町本町4-6-1,0166-92-1111,数値地図,43.588315,142.467074,
1460,上富良野町,かみふらのちょう,上富良野町役場,071-0596,空知郡上富良野町大町2-2-11,0167-45-6400,数値地図,43.455578,142.467164,
1461,中富良野町,なかふらのちょう,中富良野町役場,071-0795,空知郡中富良野町本町9-1,0167-44-2122,数値地図画像,43.405785,142.425152,
1462,南富良野町,みなみふらのちょう,南富良野町役場,079-2402,空知郡南富良野町字幾寅867,0167-52-2112,数値地図,43.164085,142.568365,
1463,占冠村,しむかっぷむら,占冠村役場,079-2201,勇払郡占冠村字中央,0167-56-2121,数値地図,42.979878,142.398532,
1464,和寒町,わっさむちょう,和寒町役場,098-0192,上川郡和寒町字西町120,0165-32-2421,数値地図,44.023154,142.413358,
1465,剣淵町,けんぶちちょう,剣淵町役場,098-0392,上川郡剣淵町仲町37-1,0165-34-2121,数値地図画像,44.095768,142.361253,
1468,下川町,しもかわちょう,下川町役場,098-1206,上川郡下川町幸町63,01655-4-2511,数値地図,44.302575,142.635238,
1469,美深町,びふかちょう,美深町役場,098-2252,中川郡美深町字西町18,01656-2-1611,数値地図,44.48099,142.34303,
1470,音威子府村,おといねっぷむら,音威子府村役場,098-2501,中川郡音威子府村字音威子府444-1,01656-5-3311,数値地図,44.724931,142.262022,
1471,中川町,なかがわちょう,中川町役場,098-2892,中川郡中川町字中川337,01656-7-2811,数値地図,44.811332,142.07134,
1472,幌加内町,ほろかないちょう,幌加内町役場,074-0492,雨竜郡幌加内町字幌加内4699,0165-35-2121,数値地図,44.009812,142.153828,
1481,増毛町,ましけちょう,増毛町役場,077-0292,増毛郡増毛町弁天町3-61,0164-53-1111,数値地図,43.856032,141.525197,
1482,小平町,おびらちょう,小平町役場,078-3392,留萌郡小平町字小平町216,0164-56-2111,数値地図,44.015157,141.662844,
1483,苫前町,とままえちょう,苫前町役場,078-3792,苫前郡苫前町字旭37-1,0164-64-2211,数値地図,44.306095,141.653022,
1484,羽幌町,はぼろちょう,羽幌町役場,078-4198,苫前郡羽幌町南町1-1,0164-62-1211,数値地図,44.360701,141.697458,
1485,初山別村,しょさんべつむら,初山別村役場,078-4492,苫前郡初山別村字初山別96-1,0164-67-2211,数値地図,44.531934,141.766495,
1486,遠別町,えんべつちょう,遠別町役場,098-3543,天塩郡遠別町字本町3-37,01632-7-2111,数値地図,44.722278,141.792177,
1487,天塩町,てしおちょう,天塩町役場,098-3398,天塩郡天塩町新栄通8丁目,01632-2-1001,数値地図,44.888313,141.745366,
1511,猿払村,さるふつむら,猿払村役場,098-6232,宗谷郡猿払村鬼志別西町172-1,01635-2-3131,数値地図,45.330577,142.108889,
1512,浜頓別町,はまとんべつちょう,浜頓別町役場,098-5792,枝幸郡浜頓別町中央南1,01634-2-2345,数値地図画像,45.123993,142.359577,
1513,中頓別町,なかとんべつちょう,中頓別町役場,098-5595,枝幸郡中頓別町字中頓別172-6,01634-6-1111,数値地図画像,44.969757,142.286594,
1514,枝幸町,えさしちょう,枝幸町役場,098-5892,枝幸郡枝幸町本町916,0163-62-1234,数値地図,44.938836,142.581257,
1516,豊富町,とよとみちょう,豊富町役場,098-4110,天塩郡豊富町大通6丁目,0162-82-1001,数値地図画像,45.102864,141.777537,
1517,礼文町,れぶんちょう,礼文町役場,097-1201,礼文郡礼文町大字香深村字トンナイ558-5,0163-86-1001,数値地図,45.303877,141.047458,
1518,利尻町,りしりちょう,利尻町役場,097-0401,利尻郡利尻町沓形字緑町14-1,0163-84-2345,数値地図,45.186976,141.13968,
1519,利尻富士町,りしりふじちょう,利尻富士町役場,097-0101,利尻郡利尻富士町鴛泊字富士野6,0163-82-1111,数値地図,45.247473,141.214726,
1520,幌延町,ほろのべちょう,幌延町役場,098-3207,天塩郡幌延町宮園町1番地,01632-5-1111,数値地図,45.017716,141.849403,
1543,美幌町,びほろちょう,美幌町役場,092-8650,網走郡美幌町字東2条北2-25,0152-73-1111,数値地図,43.823729,144.107177,
1544,津別町,つべつちょう,津別町役場,092-0292,網走郡津別町字幸町41,0152-76-2151,数値地図,43.706323,144.024801,
1545,斜里町,しゃりちょう,斜里町役場,099-4192,斜里郡斜里町本町12,0152-23-3131,数値地図,43.911426,144.670763,
1546,清里町,きよさとちょう,清里町役場,099-4492,斜里郡清里町羽衣町13,0152-25-2131,数値地図,43.835182,144.594523,
1547,小清水町,こしみずちょう,小清水町役場,099-3698,斜里郡小清水町字小清水217-1,0152-62-2311,Google Maps,43.85672,144.462121,
1549,訓子府町,くんねっぷちょう,訓子府町役場,099-1498,常呂郡訓子府町東町398,0157-47-2111,数値地図,43.725535,143.741602,
1550,置戸町,おけとちょう,置戸町役場,099-1100,常呂郡置戸町字置戸181,0157-52-3311,数値地図,43.676314,143.586391,
1552,佐呂間町,さろまちょう,佐呂間町役場,093-0502,常呂郡佐呂間町字永代町3-1,01587-2-1213,数値地図,44.017808,143.77478,
1555,遠軽町,えんがるちょう,遠軽町役場,099-0492,紋別郡遠軽町1条通北3-1-1,0158-42-4811,数値地図,44.061714,143.528019,
1559,湧別町,ゆうべつちょう,湧別町役場,099-6592,紋別郡湧別町上湧別屯田市街地318,01586-2-2111,数値地図,44.151484,143.572955,
1560,滝上町,たきのうえちょう,滝上町役場,099-5692,紋別郡滝上町字滝ノ上市街地4条通2-1,0158-29-2111,数値地図,44.192186,143.077654,
1561,興部町,おこっぺちょう,興部町役場,098-1692,紋別郡興部町字興部710,0158-82-2131,Google Maps,44.470114,143.123512,
1562,西興部村,にしおこっぺむら,西興部村役場,098-1501,紋別郡西興部村字西興部100,0158-87-2111,数値地図,44.328778,142.944461,
1563,雄武町,おうむちょう,雄武町役場,098-1792,紋別郡雄武町本町,0158-84-2121,数値地図,44.58247,142.96186,
1564,大空町,おおぞらちょう,大空町役場,099-2392,網走郡大空町女満別西3条4丁目1-1,0152-74-2111,数値地図,43.911858,144.172473,
1571,豊浦町,とようらちょう,豊浦町役場,049-5492,虻田郡豊浦町字船見町10,0142-83-2121,数値地図,42.583449,140.711921,
1575,壮瞥町,そうべつちょう,壮瞥町役場,052-0101,有珠郡壮瞥町字滝之町287-7,0142-66-2121,Google Maps,42.552385,140.886031,
1578,白老町,しらおいちょう,白老町役場,059-0995,白老郡白老町大町1-1-1,0144-82-2121,数値地図,42.551109,141.355788,
1581,厚真町,あつまちょう,厚真町役場,059-1692,勇払郡厚真町京町120,0145-27-2321,数値地図,42.722973,141.878173,
1584,洞爺湖町,とうやこちょう,洞爺湖町役場,049-5692,虻田郡洞爺湖町栄町58,0142-76-2121,数値地図,42.551458,140.764445,
1585,安平町,あびらちょう,安平町役場,059-1595,勇払郡安平町早来大町95,0145-22-2511,数値地図,42.762829,141.818092,
1586,むかわ町,むかわちょう,むかわ町役場,054-8660,勇払郡むかわ町美幸2-88,0145-42-2411,数値地図画像,42.574655,141.926905,
1601,日高町,ひだかちょう,日高町役場,059-2192,沙流郡日高町門別本町210-1,01456-2-5131,数値地図画像,42.480356,142.074652,
1602,平取町,びらとりちょう,平取町役場,055-0192,沙流郡平取町本町28,01457-2-2221,数値地図,42.585164,142.1288,
1604,新冠町,にいかっぷちょう,新冠町役場,059-2492,新冠郡新冠町字北星町3-2,0146-47-2111,数値地図,42.362416,142.318487,
1607,浦河町,うらかわちょう,浦河町役場,057-8511,浦河郡浦河町築地1-3-1,0146-22-2311,数値地図,42.168563,142.768387,
1608,様似町,さまにちょう,様似町役場,058-8501,様似郡様似町大通1-21,0146-36-2111,数値地図,42.127797,142.933875,
1609,えりも町,えりもちょう,えりも町役場,058-0292,幌泉郡えりも町字本町206,01466-2-2111,数値地図,42.016235,143.148779,
1610,新ひだか町,しんひだかちょう,新ひだか町役場,056-8650,日高郡新ひだか町静内御幸町3丁目2-50,0146-43-2111,数値地図,42.341281,142.368346,
1631,音更町,おとふけちょう,音更町役場,080-0198,河東郡音更町元町2,0155-42-2111,数値地図,42.994154,143.198017,
1632,士幌町,しほろちょう,士幌町役場,080-1200,河東郡士幌町字士幌225,01564-5-2211,数値地図,43.168191,143.241088,
1633,上士幌町,かみしほろちょう,上士幌町役場,080-1492,河東郡上士幌町字上士幌東3線238,01564-2-2111,数値地図,43.232659,143.296219,
1634,鹿追町,しかおいちょう,鹿追町役場,081-0292,河東郡鹿追町東町1-15-1,0156-66-2311,数値地図,43.099162,142.988807,
1635,新得町,しんとくちょう,新得町役場,081-8501,上川郡新得町3条南4-26,0156-64-5111,数値地図,43.079799,142.83882,
1636,清水町,しみずちょう,清水町役場,089-0192,上川郡清水町南4条2-2,0156-62-2111,数値地図,43.011059,142.884764,
1637,芽室町,めむろちょう,芽室町役場,082-8651,河西郡芽室町東2条2-14,0155-62-9721,Google Maps,42.911891,143.050841,
1638,中札内村,なかさつないむら,中札内村役場,089-1392,河西郡中札内村大通南2-3,0155-67-2311,数値地図,42.697185,143.132568,
1639,更別村,さらべつむら,更別村役場,089-1595,河西郡更別村字更別南1線93,0155-52-2111,数値地図,42.649998,143.188148,
1641,大樹町,たいきちょう,大樹町役場,089-2195,広尾郡大樹町東本通33,01558-6-2111,数値地図,42.497517,143.278871,
1642,広尾町,ひろおちょう,広尾町役場,089-2692,広尾郡広尾町西4条7-1,01558-2-2111,数値地図,42.285987,143.311687,
1643,幕別町,まくべつちょう,幕別町役場,089-0692,中川郡幕別町本町130-1,0155-54-2111,数値地図,42.908198,143.356063,
1644,池田町,いけだちょう,池田町役場,083-8650,中川郡池田町西1条7-11,015-572-3111,数値地図,42.929032,143.448496,
1645,豊頃町,とよころちょう,豊頃町役場,089-5392,中川郡豊頃町茂岩本町125,015-574-2211,数値地図,42.801021,143.505862,
1646,本別町,ほんべつちょう,本別町役場,089-3392,中川郡本別町北2-4-1,0156-22-2141,数値地図,43.124459,143.610556,
1647,足寄町,あしょろちょう,足寄町役場,089-3797,足寄郡足寄町北1条4-48-1,0156-25-2141,数値地図,43.244581,143.551971,
1648,陸別町,りくべつちょう,陸別町役場,089-4311,足寄郡陸別町字陸別東1条3-1,0156-27-2141,数値地図,43.468897,143.747307,
1649,浦幌町,うらほろちょう,浦幌町役場,089-5692,十勝郡浦幌町字桜町15-6,015-576-2111,数値地図,42.808941,143.658628,
1661,釧路町,くしろちょう,釧路町役場,088-0692,釧路郡釧路町別保1-1,0154-62-2111,数値地図,42.99617,144.466012,
1662,厚岸町,あっけしちょう,厚岸町役場,088-1192,厚岸郡厚岸町真栄3丁目1番地,0153-52-3131,数値地図,43.051953,144.847504,
1663,浜中町,はまなかちょう,浜中町役場,088-1592,厚岸郡浜中町霧多布東4条1-35-1,0153-62-2111,数値地図,43.0771,145.129421,
1664,標茶町,しべちゃちょう,標茶町役場,088-2312,川上郡標茶町川上4-2,015-485-2111,数値地図,43.30336,144.600681,
1665,弟子屈町,てしかがちょう,弟子屈町役場,088-3292,川上郡弟子屈町中央2-3-1,015-482-2191,数値地図,43.485389,144.459073,
1667,鶴居村,つるいむら,鶴居村役場,085-1203,阿寒郡鶴居村鶴居西1-1,0154-64-2111,数値地図,43.229775,144.321071,
1668,白糠町,しらぬかちょう,白糠町役場,088-0392,白糠郡白糠町西1条南1-1-1,01547-2-2171,数値地図,42.956132,144.071749,
1691,別海町,べつかいちょう,別海町役場,086-0205,野付郡別海町別海常盤町280,0153-75-2111,数値地図,43.394114,145.117437,
1692,中標津町,なかしべつちょう,中標津町役場,086-1197,標津郡中標津町丸山2-22,0153-73-3111,数値地図,43.555172,144.971444,
1693,標津町,しべつちょう,標津町役場,086-1632,標津郡標津町北2条西1-1-3,0153-82-2131,数値地図,43.661331,145.131313,
1694,羅臼町,らうすちょう,羅臼町役場,086-1892,目梨郡羅臼町栄町100-83,0153-87-2111,数値地図,44.021897,145.189466,
2000,青森県,あおもりけん,青森県庁,030-8570,青森市長島1-1-1,017-722-1111,数値地図,40.824338,140.740087,
2201,青森市,あおもりし,青森市役所,030-8555,青森市中央1-22-5,017-734-1111,数値地図,40.822116,140.747587,
2202,弘前市,ひろさきし,弘前市役所,036-8551,弘前市大字上白銀町1-1,0172-35-1111,数値地図,40.602965,140.464008,
2203,八戸市,はちのへし,八戸市役所,031-8686,八戸市内丸1-1-1,0178-43-2111,数値地図,40.511892,141.489479,
2204,黒石市,くろいしし,黒石市役所,036-0396,黒石市大字市ノ町11-1,0172-52-2111,数値地図,40.642687,140.594551,
2205,五所川原市,ごしょがわらし,五所川原市役所,037-8686,五所川原市字岩木町12,0173-35-2111,数値地図,40.807943,140.440112,
2206,十和田市,とわだし,十和田市役所,034-8615,十和田市西十二番町6-1,0176-23-5111,数値地図,40.612705,141.205891,
2207,三沢市,みさわし,三沢市役所,033-8666,三沢市桜町1-1-38,0176-53-5111,数値地図,40.683259,141.368929,
2208,むつ市,むつし,むつ市役所,035-8686,むつ市中央1丁目8-1,0175-22-1111,Google Maps,41.292734,141.183459,
2209,つがる市,つがるし,つがる市役所,038-3192,つがる市木造若緑61-1,0173-42-2111,数値地図,40.808775,140.380117,
2210,平川市,ひらかわし,平川市役所,036-0104,平川市柏木町藤山25-6,0172-44-1111,数値地図,40.584083,140.5665,
2301,平内町,ひらないまち,平内町役場,039-3393,東津軽郡平内町大字小湊字小湊63,017-755-2111,数値地図,40.926,140.956175,
2303,今別町,いまべつまち,今別町役場,030-1502,東津軽郡今別町大字今別字今別167,0174-35-2001,数値地図,41.182071,140.481482,
2304,蓬田村,よもぎたむら,蓬田村役場,030-1211,東津軽郡蓬田村大字蓬田字汐越1-3,0174-27-2111,数値地図,40.971819,140.655921,
2307,外ヶ浜町,そとがはままち,外ヶ浜町役場,030-1393,東津軽郡外ヶ浜町字蟹田高銅屋44-2,0174-31-1111,数値地図画像,41.0434,140.632316,
2321,鰺ヶ沢町,あじがさわまち,鰺ヶ沢町役場,038-2792,西津軽郡鰺ヶ沢町大字本町209-2,0173-72-2111,数値地図,40.779884,140.208742,
2323,深浦町,ふかうらまち,深浦町役場,038-2324,西津軽郡深浦町大字深浦字苗代沢84-2,0173-74-2111,数値地図,40.647944,139.927664,
2343,西目屋村,にしめやむら,西目屋村役場,036-1492,中津軽郡西目屋村大字田代字稲元144,0172-85-2111,数値地図,40.576852,140.296246,
2361,藤崎町,ふじさきまち,藤崎町役場,038-3803,南津軽郡藤崎町大字西豊田1-1,0172-75-3111,Google Maps,40.656096,140.502814,
2362,大鰐町,おおわにまち,大鰐町役場,038-0292,南津軽郡大鰐町大字大鰐字羽黒館5-3,0172-48-2111,数値地図,40.518256,140.567891,
2367,田舎館村,いなかだてむら,田舎館村役場,038-1113,南津軽郡田舎館村大字田舎館字中辻123-1,0172-58-2111,数値地図,40.631576,140.55011,
2381,板柳町,いたやなぎまち,板柳町役場,038-3692,北津軽郡板柳町大字板柳字土井239-3,0172-73-2111,数値地図,40.69601,140.457615,
2384,鶴田町,つるたまち,鶴田町役場,038-3595,北津軽郡鶴田町大字鶴田字早瀬200-1,0173-22-2111,数値地図,40.758781,140.428726,
2387,中泊町,なかどまりまち,中泊町役場,037-0392,北津軽郡中泊町大字中里字紅葉坂209,0173-57-2111,Google Maps,40.960427,140.434122,新庁舎
2401,野辺地町,のへじまち,野辺地町役場,039-3131,上北郡野辺地町字野辺地123-1,0175-64-2111,数値地図,40.864344,141.128666,
2402,七戸町,しちのへまち,七戸町役場,039-2792,上北郡七戸町字森ノ上131-4,0176-68-2111,数値地図画像,40.744662,141.158018,
2405,六戸町,ろくのへまち,六戸町役場,039-2392,上北郡六戸町大字犬落瀬字前谷地60,0176-55-3111,数値地図,40.609654,141.324768,
2406,横浜町,よこはままち,横浜町役場,039-4145,上北郡横浜町字寺下35,0175-78-2111,数値地図,41.08321,141.247534,
2408,東北町,とうほくまち,東北町役場,039-2492,上北郡東北町上北南4-32-484,0176-56-3111,数値地図画像,40.728086,141.257815,
2411,六ヶ所村,ろっかしょむら,六ヶ所村役場,039-3212,上北郡六ヶ所村大字尾駮字野附475,0175-72-2111,数値地図,40.967391,141.374474,
2412,おいらせ町,おいらせちょう,おいらせ町役場,039-2192,上北郡おいらせ町中下田135-2,0178-56-2111,数値地図,40.599101,141.397818,
2423,大間町,おおままち,大間町役場,039-4601,下北郡大間町大字大間字大間104,0175-37-2111,Google Maps,41.526771,140.907445,
2424,東通村,ひがしどおりむら,東通村役場,039-4292,下北郡東通村大字砂子又字沢内5-34,0175-27-2111,数値地図,41.277914,141.329466,
2425,風間浦村,かざまうらむら,風間浦村役場,039-4502,下北郡風間浦村大字易国間字大川目28-5,0175-35-2111,数値地図,41.487608,140.995596,
2426,佐井村,さいむら,佐井村役場,039-4711,下北郡佐井村大字佐井字糠森20,0175-38-2111,数値地図,41.429833,140.859217,
2441,三戸町,さんのへまち,三戸町役場,039-0198,三戸郡三戸町大字在府小路町43,0179-20-1111,数値地図,40.378292,141.258672,
2442,五戸町,ごのへまち,五戸町役場,039-1513,三戸郡五戸町字古舘21-1,0178-62-2111,数値地図,40.531052,141.307829,
2443,田子町,たっこまち,田子町役場,039-0292,三戸郡田子町大字田子字天神堂平81,0179-32-3111,数値地図,40.339961,141.152017,
2445,南部町,なんぶちょう,南部町役場,039-0892,三戸郡南部町大字苫米地字下宿23-1,0178-84-2111,数値地図画像,40.466791,141.381786,
2446,階上町,はしかみちょう,階上町役場,039-1201,三戸郡階上町大字道仏字天当平1-87,0178-88-2111,数値地図,40.452458,141.621135,
2450,新郷村,しんごうむら,新郷村役場,039-1801,三戸郡新郷村大字戸来字風呂前10,0178-78-2111,数値地図,40.465779,141.173399,
3000,岩手県,いわてけん,岩手県庁,020-8570,盛岡市内丸10-1,019-651-3111,数値地図,39.703647,141.152592,
3201,盛岡市,もりおかし,盛岡市役所,020-8530,盛岡市内丸12-2,019-651-4111,数値地図,39.701981,141.154259,
3202,宮古市,みやこし,宮古市役所,027-8501,宮古市新川町2-1,0193-62-2111,数値地図,39.641453,141.957245,
3203,大船渡市,おおふなとし,大船渡市役所,022-8501,大船渡市盛町字宇津野沢15,0192-27-3111,数値地図,39.082068,141.708399,
3205,花巻市,はなまきし,花巻市役所,025-8601,花巻市花城町9-30,0198-24-2111,数値地図,39.388684,141.116773,
3206,北上市,きたかみし,北上市役所,024-8501,北上市芳町1-1,0197-64-2111,数値地図,39.28675,141.113166,
3207,久慈市,くじし,久慈市役所,028-8030,久慈市川崎町1-1,0194-52-2111,数値地図,40.190271,141.775299,
3208,遠野市,とおのし,遠野市役所,028-0592,遠野市東舘町8-12,0198-62-2111,数値地図画像,39.327651,141.533912,
3209,一関市,いちのせきし,一関市役所,021-8501,一関市竹山町7-2,0191-21-2111,数値地図,38.934568,141.126511,
3210,陸前高田市,りくぜんたかたし,陸前高田市役所,029-2292,陸前高田市高田町字鳴石42-5,0192-54-2111,Google Maps,39.027713,141.625599,
3211,釜石市,かまいしし,釜石市役所,026-8686,釜石市只越町3-9-13,0193-22-2111,数値地図,39.275937,141.885596,
3213,二戸市,にのへし,二戸市役所,028-6192,二戸市福岡字川又47,0195-23-3111,数値地図,40.271085,141.304783,
3214,八幡平市,はちまんたいし,八幡平市役所,028-7397,八幡平市野駄第21地割170,0195-74-2111,Google Maps,39.956497,141.071289,
3215,奥州市,おうしゅうし,奥州市役所,023-8501,奥州市水沢区大手町1-1,0197-24-2111,数値地図,39.144545,141.139002,
3216,滝沢市,たきざわし,滝沢市役所,020-0692,滝沢市中鵜飼55,019-684-2111,数値地図,39.734753,141.077042,
3301,雫石町,しずくいしちょう,雫石町役場,020-0595,岩手郡雫石町千刈田5-1,019-692-2111,数値地図,39.696142,140.975664,
3302,葛巻町,くずまきまち,葛巻町役場,028-5495,岩手郡葛巻町葛巻第16地割1-1,0195-66-2111,数値地図,40.039726,141.436443,
3303,岩手町,いわてまち,岩手町役場,028-4395,岩手郡岩手町大字五日市第10地割44,0195-62-2111,数値地図,39.972506,141.212577,
3321,紫波町,しわちょう,紫波町役場,028-3392,紫波郡紫波町紫波中央駅前2-3-1,019-672-2111,Google Maps,39.554601,141.155684,
3322,矢巾町,やはばちょう,矢巾町役場,028-3692,紫波郡矢巾町大字南矢幅第13地割123番地,019-697-2111,数値地図,39.60588,141.143152,
3366,西和賀町,にしわがまち,西和賀町役場,029-5512,和賀郡西和賀町川尻40地割40番地71,0197-82-2111,数値地図画像,39.318039,140.778805,
3381,金ケ崎町,かねがさきちょう,金ケ崎町役場,029-4592,胆沢郡金ケ崎町西根南町22-1,0197-42-2111,数値地図,39.19565,141.116224,
3402,平泉町,ひらいずみちょう,平泉町役場,029-4192,西磐井郡平泉町平泉字志羅山45-2,0191-46-2111,数値地図,38.986784,141.114011,
3441,住田町,すみたちょう,住田町役場,029-2396,気仙郡住田町世田米字川向88-1,0192-46-2111,Google Maps,39.142209,141.575052,
3461,大槌町,おおつちちょう,大槌町役場,028-1115,上閉伊郡大槌町上町1番3号,0193-42-2111,Google Maps,39.358655,141.899986,仮庁舎（旧大槌小学校校舎）
3482,山田町,やまだまち,山田町役場,028-1392,下閉伊郡山田町八幡町3-20,0193-82-3111,数値地図,39.467584,141.948919,
3483,岩泉町,いわいずみちょう,岩泉町役場,027-0595,下閉伊郡岩泉町岩泉字惣畑59-5,0194-22-2111,数値地図,39.843092,141.796697,
3484,田野畑村,たのはたむら,田野畑村役場,028-8407,下閉伊郡田野畑村田野畑143-1,0194-34-2111,数値地図,39.930306,141.888909,
3485,普代村,ふだいむら,普代村役場,028-8392,下閉伊郡普代村第9地割字銅屋13-2,0194-35-2111,数値地図,40.005297,141.88613,
3501,軽米町,かるまいまち,軽米町役場,028-6302,九戸郡軽米町大字軽米10-85,0195-46-2111,数値地図,40.326637,141.460599,
3503,野田村,のだむら,野田村役場,028-8201,九戸郡野田村大字野田第20地割14,0194-78-2111,数値地図,40.110005,141.818077,
3506,九戸村,くのへむら,九戸村役場,028-6502,九戸郡九戸村大字伊保内10-11-6,0195-42-2111,数値地図,40.211372,141.418941,
3507,洋野町,ひろのちょう,洋野町役場,028-7995,九戸郡洋野町種市23-27,0194-65-2111,数値地図,40.408578,141.71807,
3524,一戸町,いちのへまち,一戸町役場,028-5311,二戸郡一戸町高善寺字大川鉢24-9,0195-33-2111,数値地図,40.213036,141.295341,
4000,宮城県,みやぎけん,宮城県庁,980-8570,仙台市青葉区本町3-8-1,022-211-2111,数値地図,38.268803,140.871846,
4100,仙台市,せんだいし,仙台市役所,980-8671,仙台市青葉区国分町3-7-1,022-261-1111,数値地図,38.26797,140.869625,
4101,仙台市青葉区,せんだいしあおばく,青葉区役所,980-8701,仙台市青葉区上杉1-5-1,022-225-7211,数値地図,38.269081,140.870458,
4102,仙台市宮城野区,せんだいしみやぎのく,宮城野区役所,983-8601,仙台市宮城野区五輪2-12-35,022-291-2111,数値地図,38.266305,140.910176,
4103,仙台市若林区,せんだいしわかばやしく,若林区役所,984-8601,仙台市若林区保春院前丁3-1,022-282-1111,数値地図,38.244085,140.900734,
4104,仙台市太白区,せんだいしたいはくく,太白区役所,982-8601,仙台市太白区長町南3-1-15,022-247-1111,数値地図,38.224364,140.877126,
4105,仙台市泉区,せんだいしいずみく,泉区役所,981-3189,仙台市泉区泉中央2-1-1,022-372-3111,数値地図,38.326297,140.881287,
4202,石巻市,いしのまきし,石巻市役所,986-8501,石巻市穀町14-1,0225-95-1111,Google Maps,38.434239,141.302768,
4203,塩竈市,しおがまし,塩竈市役所,985-8501,塩竈市旭町1-1,022-364-1111,数値地図,38.314359,141.022108,
4205,気仙沼市,けせんぬまし,気仙沼市役所,988-8501,気仙沼市八日町1-1-1,0226-22-6600,数値地図,38.908195,141.570083,
4206,白石市,しろいしし,白石市役所,989-0292,白石市大手町1-1,0224-22-1331,数値地図,38.002155,140.619657,
4207,名取市,なとりし,名取市役所,981-1292,名取市増田字柳田80,022-384-2111,数値地図,38.171592,140.891849,
4208,角田市,かくだし,角田市役所,981-1592,角田市角田字大坊41,0224-63-2111,数値地図,37.977162,140.781867,
4209,多賀城市,たがじょうし,多賀城市役所,985-8531,多賀城市中央2-1-1,022-368-1141,数値地図,38.293806,141.004333,
4211,岩沼市,いわぬまし,岩沼市役所,989-2480,岩沼市桜1-6-20,0223-22-1111,数値地図,38.104375,140.86991,
4212,登米市,とめし,登米市役所,987-0511,登米市迫町佐沼字中江2-6-1,0220-22-2111,数値地図,38.691819,141.187625,
4213,栗原市,くりはらし,栗原市役所,987-2293,栗原市築館薬師1-7-1,0228-22-1122,数値地図,38.730144,141.021253,
4214,東松島市,ひがしまつしまし,東松島市役所,981-0503,東松島市矢本字上河戸36-1,0225-82-1111,数値地図,38.426295,141.210413,
4215,大崎市,おおさきし,大崎市役所,989-6188,大崎市古川七日町1-1,0229-23-2111,数値地図,38.577104,140.955435,
4216,富谷市,とみやし,富谷市役所,981-3392,富谷市富谷坂松田30,022-358-3111,数値地図画像,38.400135,140.895388,
4301,蔵王町,ざおうまち,蔵王町役場,989-0892,刈田郡蔵王町大字円田字西浦北10,0224-33-2211,数値地図,38.09798,140.658815,
4302,七ケ宿町,しちかしゅくまち,七ケ宿町役場,989-0592,刈田郡七ケ宿町字関126,0224-37-2111,数値地図,37.992985,140.441618,
4321,大河原町,おおがわらまち,大河原町役場,989-1295,柴田郡大河原町字新南19,0224-53-2111,数値地図,38.049376,140.730757,
4322,村田町,むらたまち,村田町役場,989-1392,柴田郡村田町大字村田字迫6,0224-83-2111,数値地図,38.118536,140.72242,
4323,柴田町,しばたまち,柴田町役場,989-1692,柴田郡柴田町船岡中央2-3-45,0224-55-2111,数値地図,38.056321,140.765753,
4324,川崎町,かわさきまち,川崎町役場,989-1592,柴田郡川崎町大字前川字裏丁175-1,0224-84-2111,数値地図,38.177695,140.643535,
4341,丸森町,まるもりまち,丸森町役場,981-2192,伊具郡丸森町字鳥屋120,0224-72-2111,数値地図,37.911337,140.765483,
4361,亘理町,わたりちょう,亘理町役場,989-2393,亘理郡亘理町字下小路7-4,0223-34-1111,数値地図,38.037714,140.852692,
4362,山元町,やまもとちょう,山元町役場,989-2292,亘理郡山元町浅生原字作田山32,0223-37-1111,数値地図,37.962445,140.877693,
4401,松島町,まつしままち,松島町役場,981-0215,宮城郡松島町高城字帰命院下一19-1,022-354-5701,Google Maps,38.38011,141.067228,仮設庁舎（プレハブ）
4404,七ヶ浜町,しちがはままち,七ヶ浜町役場,985-8577,宮城郡七ヶ浜町東宮浜字丑谷辺5-1,022-357-2111,数値地図,38.30464,141.059327,
4406,利府町,りふちょう,利府町役場,981-0112,宮城郡利府町利府字新並松4,022-767-2111,数値地図画像,38.330181,140.975364,
4421,大和町,たいわちょう,大和町役場,981-3680,黒川郡大和町吉岡字西桧木1番地の1,022-345-1111,Google Maps,38.437292,140.886315,
4422,大郷町,おおさとちょう,大郷町役場,981-3592,黒川郡大郷町粕川字西長崎5-8,022-359-3111,数値地図,38.424345,141.004325,
4424,大衡村,おおひらむら,大衡村役場,981-3692,黒川郡大衡村大衡字平林62,022-345-5111,数値地図,38.467392,140.880169,
4444,色麻町,しかまちょう,色麻町役場,981-4122,加美郡色麻町四竃字北谷地41,0229-65-2111,数値地図,38.548772,140.849891,
4445,加美町,かみまち,加美町役場,981-4292,加美郡加美町字西田3-5,0229-63-3111,数値地図,38.571826,140.854889,
4501,涌谷町,わくやちょう,涌谷町役場,987-0192,遠田郡涌谷町字新町裏153-2,0229-43-2111,数値地図,38.539612,141.128194,
4505,美里町,みさとまち,美里町役場,987-8602,遠田郡美里町北浦字駒米13,0229-33-2111,数値地図,38.544332,141.056813,
4581,女川町,おながわちょう,女川町役場,986-2261,牡鹿郡女川町女川浜字大原316,0225-54-3131,Google Maps,38.449748,141.44313,仮設庁舎（プレハブ）
4606,南三陸町,みなみさんりくちょう,南三陸町役場,986-0792,本吉郡南三陸町志津川字沼田56-2,0226-46-2600,数値地図,38.677662,141.446493,
5000,秋田県,あきたけん,秋田県庁,010-8570,秋田市山王4-1-1,018-860-1111,数値地図,39.718058,140.10325,
5201,秋田市,あきたし,秋田市役所,010-8560,秋田市山王1-1-1,018-863-2222,数値地図,39.719724,140.102417,
5202,能代市,のしろし,能代市役所,016-8501,能代市上町1-3,0185-52-2111,数値地図,40.212167,140.026568,
5203,横手市,よこてし,横手市役所,013-8601,横手市中央町8-2,0182-35-2111,Google Maps,39.313779,140.566677,
5204,大館市,おおだてし,大館市役所,017-8555,大館市字中城20,0186-49-3111,数値地図,40.271618,140.564571,
5206,男鹿市,おがし,男鹿市役所,010-0595,男鹿市船川港船川字泉台66-1,0185-23-2111,数値地図,39.886643,139.847711,
5207,湯沢市,ゆざわし,湯沢市役所,012-8501,湯沢市佐竹町1-1,0183-73-2111,数値地図,39.163968,140.494902,
5209,鹿角市,かづのし,鹿角市役所,018-5292,鹿角市花輪字荒田4-1,0186-30-0203,数値地図,40.215799,140.788441,
5210,由利本荘市,ゆりほんじょうし,由利本荘市役所,015-8501,由利本荘市尾崎17,0184-24-3321,数値地図,39.38588,140.048829,
5211,潟上市,かたがみし,潟上市役所,010-0201,潟上市天王字棒沼台226-1,018-853-5301,Google Maps,39.857288,140.013049,
5212,大仙市,だいせんし,大仙市役所,014-8601,大仙市大曲花園町1-1,0187-63-1111,数値地図,39.453101,140.475451,
5213,北秋田市,きたあきたし,北秋田市役所,018-3392,北秋田市花園町19-1,0186-62-1111,数値地図,40.226062,140.370702,
5214,にかほ市,にかほし,にかほ市役所,018-0192,にかほ市象潟町字浜ノ田1,0184-43-3200,数値地図,39.203114,139.907729,象潟庁舎
5215,仙北市,せんぼくし,仙北市役所,014-1298,仙北市田沢湖生保内字宮ノ後30,0187-43-1111,数値地図,39.700022,140.731524,
5303,小坂町,こさかまち,小坂町役場,017-0292,鹿角郡小坂町小坂字上谷地41-1,0186-29-3901,Google Maps,40.332969,140.736025,
5327,上小阿仁村,かみこあにむら,上小阿仁村役場,018-4494,北秋田郡上小阿仁村小沢田字向川原118,0186-77-2221,数値地図,40.063302,140.295716,
5346,藤里町,ふじさとまち,藤里町役場,018-3201,山本郡藤里町藤琴字藤琴8,0185-79-2111,数値地図,40.278276,140.26182,
5348,三種町,みたねちょう,三種町役場,018-2401,山本郡三種町鵜川字岩谷子8,0185-85-2111,数値地図,40.101623,140.004909,
5349,八峰町,はっぽうちょう,八峰町役場,018-2502,山本郡八峰町峰浜目名潟字目長田118,0185-76-2111,Google Maps,40.319082,140.03862,
5361,五城目町,ごじょうめまち,五城目町役場,018-1792,南秋田郡五城目町西磯ノ目1-1-1,018-852-5100,数値地図,39.944144,140.111572,
5363,八郎潟町,はちろうがたまち,八郎潟町役場,018-1692,南秋田郡八郎潟町字大道80,018-875-5800,数値地図,39.949421,140.073243,
5366,井川町,いかわまち,井川町役場,018-1596,南秋田郡井川町北川尻字海老沢樋ノ口78-1,018-874-4411,数値地図,39.914146,140.081577,
5368,大潟村,おおがたむら,大潟村役場,010-0494,南秋田郡大潟村字中央1-1,0185-45-2111,数値地図,40.017742,139.959918,
5434,美郷町,みさとちょう,美郷町役場,019-1541,仙北郡美郷町土崎字上野乙170-10,0187-84-1111,Google Maps,39.461633,140.582127,
5463,羽後町,うごまち,羽後町役場,012-1131,雄勝郡羽後町西馬音内字中野177,0183-62-2111,数値地図,39.198128,140.412687,
5464,東成瀬村,ひがしなるせむら,東成瀬村役場,019-0801,雄勝郡東成瀬村田子内字仙人下30-1,0182-47-3401,数値地図,39.178971,140.648773,
6000,山形県,やまがたけん,山形県庁,990-8570,山形市松波2-8-1,023-630-2211,数値地図,38.240457,140.363278,
6201,山形市,やまがたし,山形市役所,990-8540,山形市旅篭町2-3-25,023-641-1212,数値地図画像,38.255429,140.339435,
6202,米沢市,よねざわし,米沢市役所,992-8501,米沢市金池5-2-25,0238-22-5111,数値地図,37.922151,140.116925,
6203,鶴岡市,つるおかし,鶴岡市役所,997-8601,鶴岡市馬場町9-25,0235-25-2111,数値地図,38.727333,139.826642,
6204,酒田市,さかたし,酒田市役所,998-8540,酒田市本町2-2-45,0234-22-5111,数値地図,38.914533,139.836357,
6205,新庄市,しんじょうし,新庄市役所,996-8501,新庄市沖の町10-37,0233-22-2111,数値地図,38.76484,140.301875,
6206,寒河江市,さがえし,寒河江市役所,991-8601,寒河江市中央1-9-45,0237-86-2111,数値地図,38.380996,140.276061,
6207,上山市,かみのやまし,上山市役所,999-3192,上山市河崎1-1-10,023-672-1111,数値地図,38.149631,140.267735,
6208,村山市,むらやまし,村山市役所,995-8666,村山市中央1-3-6,0237-55-2111,数値地図,38.483488,140.380494,
6209,長井市,ながいし,長井市役所,993-8601,長井市ままの上5-1,0238-84-2111,数値地図,38.107685,140.040535,
6210,天童市,てんどうし,天童市役所,994-8510,天童市老野森1-1-1,023-654-1111,数値地図,38.362111,140.378274,
6211,東根市,ひがしねし,東根市役所,999-3795,東根市中央1-1-1,0237-42-1111,数値地図,38.431271,140.391048,
6212,尾花沢市,おばなざわし,尾花沢市役所,999-4292,尾花沢市若葉町1-1-3,0237-22-1111,数値地図,38.600696,140.405762,
6213,南陽市,なんようし,南陽市役所,999-2292,南陽市三間通436-1,0238-40-3211,数値地図,38.055194,140.148305,
6301,山辺町,やまのべまち,山辺町役場,990-0392,東村山郡山辺町緑ヶ丘5,023-667-1111,数値地図,38.289061,140.262452,
6302,中山町,なかやままち,中山町役場,990-0492,東村山郡中山町長崎120,023-662-2111,数値地図,38.333224,140.283006,
6321,河北町,かほくちょう,河北町役場,999-3511,西村山郡河北町谷地戊81,0237-73-2111,数値地図,38.42627,140.314389,
6322,西川町,にしかわまち,西川町役場,990-0792,西村山郡西川町海味510,0237-74-2111,数値地図,38.426543,140.147733,
6323,朝日町,あさひまち,朝日町役場,990-1442,西村山郡朝日町宮宿1115,0237-67-2111,数値地図,38.299056,140.145795,
6324,大江町,おおえまち,大江町役場,990-1101,西村山郡大江町左沢882-1,0237-62-2111,数値地図,38.380717,140.206621,
6341,大石田町,おおいしだまち,大石田町役場,999-4112,北村山郡大石田町緑町1,0237-35-2111,数値地図,38.593752,140.37271,
6361,金山町,かねやままち,金山町役場,999-5402,最上郡金山町金山324-1,0233-52-2111,数値地図,38.883439,140.339367,
6362,最上町,もがみまち,最上町役場,999-6101,最上郡最上町向町644,0233-43-2111,数値地図,38.758458,140.519356,
6363,舟形町,ふながたまち,舟形町役場,999-4601,最上郡舟形町舟形263,0233-32-2111,数値地図,38.691516,140.319931,
6364,真室川町,まむろがわまち,真室川町役場,999-5312,最上郡真室川町大字新町127-5,0233-62-2111,数値地図,38.857884,140.252431,
6365,大蔵村,おおくらむら,大蔵村役場,996-0212,最上郡大蔵村大字清水2528,0233-75-2111,数値地図,38.704012,140.230493,
6366,鮭川村,さけがわむら,鮭川村役場,999-5292,最上郡鮭川村大字佐渡2003-7,0233-55-2111,数値地図,38.796223,140.221602,
6367,戸沢村,とざわむら,戸沢村役場,999-6401,最上郡戸沢村古口270,0233-72-2111,数値地図,38.737617,140.143556,
6381,高畠町,たかはたまち,高畠町役場,992-0392,東置賜郡高畠町大字高畠436,0238-52-1111,数値地図,38.0027,140.189137,
6382,川西町,かわにしまち,川西町役場,999-0193,東置賜郡川西町上小松1567,0238-42-2111,数値地図,38.004362,140.045817,
6401,小国町,おぐにまち,小国町役場,999-1363,西置賜郡小国町小国小坂町2-70,0238-62-2111,数値地図,38.061377,139.743286,
6402,白鷹町,しらたかまち,白鷹町役場,992-0892,西置賜郡白鷹町大字荒砥甲833,0238-85-2111,数値地図,38.182956,140.098582,
6403,飯豊町,いいでまち,飯豊町役場,999-0696,西置賜郡飯豊町大字椿2888,0238-72-2111,数値地図,38.045746,139.987487,
6426,三川町,みかわまち,三川町役場,997-1301,東田川郡三川町横山字西田85,0235-66-3111,数値地図,38.794547,139.849693,
6428,庄内町,しょうないまち,庄内町役場,999-7781,東田川郡庄内町余目字町132-1,0234-43-2211,数値地図,38.84982,139.904686,
6461,遊佐町,ゆざまち,遊佐町役場,999-8301,飽海郡遊佐町遊佐字舞鶴211,0234-72-3311,数値地図,39.014802,139.907457,
7000,福島県,ふくしまけん,福島県庁,960-8670,福島市杉妻町2-16,024-521-1111,数値地図,37.749957,140.467734,
7201,福島市,ふくしまし,福島市役所,960-8601,福島市五老内町3-1,024-535-1111,数値地図,37.760789,140.473844,
7202,会津若松市,あいづわかまつし,会津若松市役所,965-8601,会津若松市東栄町3-46,0242-39-1111,数値地図,37.494694,139.92974,
7203,郡山市,こおりやまし,郡山市役所,963-8601,郡山市朝日1-23-7,024-924-2491,数値地図,37.400548,140.359702,
7204,いわき市,いわきし,いわき市役所,970-8686,いわき市平字梅本21,0246-22-1111,数値地図,37.050602,140.887726,
7205,白河市,しらかわし,白河市役所,961-8602,白河市八幡小路7-1,0248-22-1111,数値地図,37.126326,140.210868,
7207,須賀川市,すかがわし,須賀川市役所,962-8601,須賀川市八幡町135,0248-75-1111,数値地図,37.286672,140.372763,
7208,喜多方市,きたかたし,喜多方市役所,966-8601,喜多方市字御清水東7244-2,0241-24-5211,数値地図,37.651063,139.874461,
7209,相馬市,そうまし,相馬市役所,976-8601,相馬市中村字北町63-3,0244-37-2120,Google Maps,37.797353,140.918937,新庁舎
7210,二本松市,にほんまつし,二本松市役所,964-8601,二本松市金色403-1,0243-23-1111,数値地図,37.584696,140.431357,
7211,田村市,たむらし,田村市役所,963-4393,田村市船引町船引字畑添76-2,0247-81-2111,Google Maps,37.440701,140.576162,新庁舎
7212,南相馬市,みなみそうまし,南相馬市役所,975-8686,南相馬市原町区本町2-27,0244-22-2111,数値地図,37.642205,140.957145,
7213,伊達市,だてし,伊達市役所,960-0692,伊達市保原町字舟橋180,024-575-1111,数値地図画像,37.819023,140.562873,
7214,本宮市,もとみやし,本宮市役所,969-1192,本宮市本宮字万世212,0243-33-1111,数値地図,37.513314,140.393862,
7301,桑折町,こおりまち,桑折町役場,969-1692,伊達郡桑折町字東大隅18,024-582-2111,数値地図,37.849391,140.516338,
7303,国見町,くにみまち,国見町役場,969-1792,伊達郡国見町大字藤田字一丁田二1-7,024-585-2111,Google Maps,37.876785,140.549168,
7308,川俣町,かわまたまち,川俣町役場,960-1492,伊達郡川俣町字五百田30,024-566-2111,数値地図,37.664969,140.598283,
7322,大玉村,おおたまむら,大玉村役場,969-1392,安達郡大玉村玉井字星内70,0243-48-3131,数値地図,37.534422,140.371086,
7342,鏡石町,かがみいしまち,鏡石町役場,969-0492,岩瀬郡鏡石町不時沼345,0248-62-2111,数値地図,37.252785,140.3436,
7344,天栄村,てんえいむら,天栄村役場,962-0592,岩瀬郡天栄村大字下松本字原畑78,0248-82-2111,数値地図,37.255283,140.247221,
7362,下郷町,しもごうまち,下郷町役場,969-5345,南会津郡下郷町大字塩生字大石1000,0241-69-1122,数値地図,37.252219,139.867254,
7364,檜枝岐村,ひのえまたむら,檜枝岐村役場,967-0525,南会津郡檜枝岐村字下ノ原880,0241-75-2500,数値地図,37.024181,139.388975,
7367,只見町,ただみまち,只見町役場,968-0498,南会津郡只見町大字只見字雨堤1039,0241-82-5220,数値地図,37.348583,139.315915,
7368,南会津町,みなみあいづまち,南会津町役場,967-0004,南会津郡南会津町田島字後原甲3531-1,0241-62-6100,数値地図,37.200278,139.773376,
7402,北塩原村,きたしおばらむら,北塩原村役場,966-0485,耶麻郡北塩原村大字北山字姥ヶ作3151,0241-23-3111,数値地図,37.655787,139.937788,
7405,西会津町,にしあいづまち,西会津町役場,969-4495,耶麻郡西会津町野沢字下小屋上乙3261,0241-45-2211,数値地図,37.588842,139.647541,
7407,磐梯町,ばんだいまち,磐梯町役場,969-3392,耶麻郡磐梯町大字磐梯字中ノ橋1855,0242-74-1221,数値地図,37.56191,139.988343,
7408,猪苗代町,いなわしろまち,猪苗代町役場,969-3123,耶麻郡猪苗代町字城南100,0242-62-2111,数値地図,37.557745,140.104721,
7421,会津坂下町,あいづばんげまち,会津坂下町役場,969-6592,河沼郡会津坂下町字市中三番甲3662,0242-84-1503,数値地図,37.56135,139.821692,
7422,湯川村,ゆがわむら,湯川村役場,969-3593,河沼郡湯川村大字清水田字長瀞18,0241-27-8800,Google Maps,37.565396,139.8867,
7423,柳津町,やないづまち,柳津町役場,969-7201,河沼郡柳津町大字柳津字下平乙234,0241-42-2112,数値地図,37.526073,139.719481,
7444,三島町,みしままち,三島町役場,969-7511,大沼郡三島町大字宮下字宮下350,0241-48-5511,数値地図,37.470244,139.64449,
7445,金山町,かねやままち,金山町役場,968-0011,大沼郡金山町大字川口字谷地393,0241-54-5111,数値地図,37.453853,139.524781,
7446,昭和村,しょうわむら,昭和村役場,968-0103,大沼郡昭和村大字下中津川字中島652,0241-57-2111,数値地図,37.335813,139.61061,
7447,会津美里町,あいづみさとまち,会津美里町役場,969-6292,大沼郡会津美里町字宮北3163,0242-55-1122,数値地図,37.459973,139.841139,
7461,西郷村,にしごうむら,西郷村役場,961-8501,西白河郡西郷村大字熊倉字折口原40,0248-25-1111,数値地図,37.141823,140.155316,
7464,泉崎村,いずみざきむら,泉崎村役場,969-0101,西白河郡泉崎村大字泉崎字八丸145,0248-53-2111,Google Maps,37.153736,140.303296,新庁舎
7465,中島村,なかじまむら,中島村役場,961-0192,西白河郡中島村大字滑津字中島西11-1,0248-52-2111,数値地図,37.148631,140.35027,
7466,矢吹町,やぶきまち,矢吹町役場,969-0296,西白河郡矢吹町一本木101,0248-42-2111,数値地図,37.201124,140.338602,
7481,棚倉町,たなぐらまち,棚倉町役場,963-6192,東白川郡棚倉町大字棚倉字中居野33,0247-33-2111,数値地図,37.029757,140.379717,
7482,矢祭町,やまつりまち,矢祭町役場,963-5192,東白川郡矢祭町大字東舘字舘本66,0247-46-3131,数値地図,36.871444,140.424719,
7483,塙町,はなわまち,塙町役場,963-5492,東白川郡塙町大字塙字大町3-21,0247-43-2111,数値地図,36.957267,140.409717,
7484,鮫川村,さめがわむら,鮫川村役場,963-8401,東白川郡鮫川村大字赤坂中野字新宿39-5,0247-49-3111,数値地図,37.042538,140.509705,
7501,石川町,いしかわまち,石川町役場,963-7893,石川郡石川町字長久保185-4,0247-26-2111,Google Maps,37.157059,140.446947,
7502,玉川村,たまかわむら,玉川村役場,963-6312,石川郡玉川村大字小高字中畷9,0247-57-3101,数値地図,37.210847,140.408874,
7503,平田村,ひらたむら,平田村役場,963-8292,石川郡平田村大字永田字切田116,0247-55-3111,Google Maps,37.221791,140.575871,新庁舎（旧永田小学校）
7504,浅川町,あさかわまち,浅川町役場,963-6292,石川郡浅川町大字浅川字背戸谷地112-15,0247-36-4121,数値地図,37.080863,140.412767,
7505,古殿町,ふるどのまち,古殿町役場,963-8304,石川郡古殿町大字松川字新桑原31,0247-53-3111,数値地図,37.089478,140.557477,
7521,三春町,みはるまち,三春町役場,963-7796,田村郡三春町字大町1-2,0247-62-2111,数値地図,37.441103,140.492746,
7522,小野町,おのまち,小野町役場,963-3492,田村郡小野町大字小野新町字舘廻92,0247-72-2111,数値地図,37.286956,140.626352,
7541,広野町,ひろのまち,広野町役場,979-0402,双葉郡広野町大字下北迫字苗代替35,0240-27-2111,数値地図,37.214475,140.994652,
7542,楢葉町,ならはまち,楢葉町役場,979-0696,双葉郡楢葉町大字北田字鐘突堂5-6,0240-25-2111,Google Maps,37.282632,140.99352,
7543,富岡町,とみおかまち,富岡町役場,979-1192,双葉郡富岡町大字本岡字王塚622-1,0240-22-2111,Google Maps,37.345906,141.008881,帰還
7544,川内村,かわうちむら,川内村役場,979-1292,双葉郡川内村大字上川内字早渡11-24,0240-38-2111,Google Maps,37.337633,140.809362,
7545,大熊町,おおくままち,大熊町役場,965-0873,会津若松市追手町2-41（会津若松市役所追手町第二庁舎内）,0242-26-3844,Google Maps,37.489767,139.92786,会津若松出張所
7546,双葉町,ふたばまち,双葉町役場,974-8212,いわき市東田町二丁目19-4,0246-84-5200,Google Maps,36.921861,140.800626,いわき事務所
7547,浪江町,なみえまち,浪江町役場,979-1592,双葉郡浪江町大字幾世橋字六反田7-2,0240-34-2111,Google Maps,37.494582,141.000664,帰還
7548,葛尾村,かつらおむら,葛尾村役場,979-1602,双葉郡葛尾村大字落合字落合16,0240-29-2111,Google Maps,37.503535,140.764486,帰還
7561,新地町,しんちまち,新地町役場,979-2792,相馬郡新地町谷地小屋字樋掛田30,0244-62-2111,数値地図画像,37.875842,140.919385,
7564,飯舘村,いいたてむら,飯舘村役場,960-1892,相馬郡飯舘村伊丹沢字伊丹沢580-1,0244-42-1611,数値地図,37.679137,140.735495,
8000,茨城県,いばらぎけん,茨城県庁,310-8555,水戸市笠原町978-6,029-301-1111,数値地図,36.34145,140.446735,
8201,水戸市,みとし,水戸市役所,310-8610,水戸市中央1-4-1,029-224-1111,数値地図,36.365725,140.471454,
8202,日立市,ひたちし,日立市役所,317-8601,日立市助川町1-1-1,0294-22-3111,数値地図,36.599176,140.651597,
8203,土浦市,つちうらし,土浦市役所,300-8686,土浦市大和町9-1,029-826-1111,Google Maps,36.0784598,140.2019114,
8204,古河市,こがし,古河市役所,306-0291,古河市下大野2248,0280-92-3111,数値地図画像,36.178826,139.755733,
8205,石岡市,いしおかし,石岡市役所,315-8640,石岡市石岡1-1-1,0299-23-1111,数値地図,36.190742,140.287339,
8207,結城市,ゆうきし,結城市役所,307-8501,結城市大字結城1447,0296-32-1111,数値地図,36.305164,139.877427,
8208,龍ケ崎市,りゅうがさきし,龍ケ崎市役所,301-8611,龍ケ崎市3710,0297-64-1111,数値地図,35.911521,140.182275,
8210,下妻市,しもつまし,下妻市役所,304-8501,下妻市大字本城町2-22,0296-43-2111,数値地図,36.184485,139.967396,
8211,常総市,じょうそうし,常総市役所,303-8501,常総市水海道諏訪町3222-3,0297-23-2111,数値地図,36.02356,139.993817,
8212,常陸太田市,ひたちおおたし,常陸太田市役所,313-8611,常陸太田市金井町3690,0294-72-3111,数値地図,36.538346,140.530999,
8214,高萩市,たかはぎし,高萩市役所,318-8511,高萩市春日町3-10-16,0293-23-2111,Google Maps,36.719161,140.716644,仮設庁舎（プレハブ）
8215,北茨城市,きたいばらきし,北茨城市役所,319-1592,北茨城市磯原町磯原1630,0293-43-1111,数値地図,36.801906,140.751224,
8216,笠間市,かさまし,笠間市役所,309-1792,笠間市中央3-2-1,0296-77-1101,数値地図,36.385995,140.237559,
8217,取手市,とりでし,取手市役所,302-8585,取手市寺田5139,0297-74-2141,数値地図,35.911435,140.050371,
8219,牛久市,うしくし,牛久市役所,300-1292,牛久市中央3-15-1,029-873-2111,数値地図,35.979347,140.149609,
8220,つくば市,つくばし,つくば市役所,305-8555,つくば市研究学園1-1-1,029-883-1111,Google Maps,36.083442,140.0765,
8221,ひたちなか市,ひたちなかし,ひたちなか市役所,312-8501,ひたちなか市東石川2-10-1,029-273-0111,数値地図,36.396501,140.534532,
8222,鹿嶋市,かしまし,鹿嶋市役所,314-8655,鹿嶋市大字平井1187-1,0299-82-2911,数値地図画像,35.965852,140.644965,
8223,潮来市,いたこし,潮来市役所,311-2493,潮来市辻626,0299-63-1111,数値地図,35.947139,140.555267,
8224,守谷市,もりやし,守谷市役所,302-0198,守谷市大柏950-1,0297-45-1111,数値地図,35.951345,139.975543,
8225,常陸大宮市,ひたちおおみやし,常陸大宮市役所,319-2292,常陸大宮市中富町3135-6,0295-52-1111,数値地図画像,36.542428,140.410934,
8226,那珂市,なかし,那珂市役所,311-0192,那珂市福田1819-5,029-298-1111,数値地図,36.457383,140.4867,
8227,筑西市,ちくせいし,筑西市役所,308-8616,筑西市丙360,0296-24-2111,Google Maps,36.305263,139.979417,新庁舎
8228,坂東市,ばんどうし,坂東市役所,306-0692,坂東市岩井4365,0297-35-2121,数値地図,36.048333,139.888798,岩井庁舎
8229,稲敷市,いなしきし,稲敷市役所,300-0595,稲敷市犬塚1570-1,029-892-2000,Google Maps,35.972418,140.303503,新庁舎
8230,かすみがうら市,かすみがうらし,かすみがうら市役所,315-8512,かすみがうら市上土田461,0299-59-2111,数値地図,36.151828,140.237095,
8231,桜川市,さくらがわし,桜川市役所,309-1293,桜川市羽田1023,0296-58-5111,数値地図,36.327333,140.090519,
8232,神栖市,かみすし,神栖市役所,314-0192,神栖市溝口4991-5,0299-90-1111,数値地図,35.889899,140.664618,
8233,行方市,なめがたし,行方市役所,311-3892,行方市麻生1561-9,0299-72-0811,数値地図,35.990215,140.489078,
8234,鉾田市,ほこたし,鉾田市役所,311-1592,鉾田市鉾田1444-1,0291-33-2111,数値地図,36.158695,140.516486,
8235,つくばみらい市,つくばみらいし,つくばみらい市役所,300-2395,つくばみらい市福田195,0297-58-2111,数値地図,35.962957,140.037063,
8236,小美玉市,おみたまし,小美玉市役所,319-0192,小美玉市堅倉835,0299-48-1111,数値地図,36.23935,140.352581,
8302,茨城町,いばらきまち,茨城町役場,311-3192,東茨城郡茨城町大字小堤1080,029-292-1111,数値地図,36.286873,140.424684,
8309,大洗町,おおあらいまち,大洗町役場,311-1392,東茨城郡大洗町磯浜町6881-275,029-267-5111,数値地図,36.312373,140.574863,
8310,城里町,しろさとまち,城里町役場,311-4391,東茨城郡城里町大字石塚1428-25,029-288-3111,数値地図,36.479211,140.376265,
8341,東海村,とうかいむら,東海村役場,319-1192,那珂郡東海村東海3-7-1,029-282-1711,数値地図,36.47291,140.56622,
8364,大子町,だいごまち,大子町役場,319-3526,久慈郡大子町大字大子866,0295-72-1111,数値地図,36.768093,140.355285,
8442,美浦村,みほむら,美浦村役場,300-0492,稲敷郡美浦村大字受領1515,029-885-0340,数値地図,36.004403,140.301845,
8443,阿見町,あみまち,阿見町役場,300-0392,稲敷郡阿見町中央1-1-1,029-888-1111,数値地図,36.030814,140.214963,
8447,河内町,かわちまち,河内町役場,300-1392,稲敷郡河内町源清田1183,0297-84-2111,数値地図,35.884749,140.24452,
8521,八千代町,やちよまち,八千代町役場,300-3592,結城郡八千代町大字菅谷1170,0296-48-1111,数値地図,36.181291,139.89132,
8542,五霞町,ごかまち,五霞町役場,306-0392,猿島郡五霞町大字小福田1162-1,0280-84-1111,数値地図,36.114488,139.745196,
8546,境町,さかいまち,境町役場,306-0495,猿島郡境町391-1,0280-81-1300,数値地図画像,36.108546,139.794981,
8564,利根町,とねまち,利根町役場,300-1696,北相馬郡利根町布川841-1,0297-68-2211,数値地図,35.857749,140.139309,
9000,栃木県,とちぎけん,栃木県庁,320-8501,宇都宮市塙田1-1-20,028-623-2323,数値地図,36.565689,139.883528,
9201,宇都宮市,うつのみやし,宇都宮市役所,320-8540,宇都宮市旭1-1-5,028-632-2222,数値地図,36.55519,139.882668,
9202,足利市,あしかがし,足利市役所,326-8601,足利市本城3-2145,0284-20-2222,数値地図,36.340231,139.44977,
9203,栃木市,とちぎし,栃木市役所,328-8686,栃木市万町9-25,0282-22-3535,Google Maps,36.382415,139.734174,
9204,佐野市,さのし,佐野市役所,327-8501,佐野市高砂町1,0283-24-5111,数値地図画像,36.314309,139.57845,
9205,鹿沼市,かぬまし,鹿沼市役所,322-8601,鹿沼市今宮町1688-1,0289-64-2111,数値地図,36.567102,139.74504,
9206,日光市,にっこうし,日光市役所,321-1292,日光市今市本町1,0288-22-1111,数値地図画像,36.719907,139.698196,
9208,小山市,おやまし,小山市役所,323-8686,小山市中央町1-1-1,0285-23-1111,数値地図,36.314577,139.800183,
9209,真岡市,もおかし,真岡市役所,321-4395,真岡市荒町5191,0285-82-1111,数値地図,36.440124,140.012994,
9210,大田原市,おおたわらし,大田原市役所,324-8641,大田原市本町1-4-1,0287-23-1111,数値地図,36.870767,140.015586,
9211,矢板市,やいたし,矢板市役所,329-2192,矢板市本町5-4,0287-43-1111,数値地図,36.806744,139.924181,
9213,那須塩原市,なすしおばらし,那須塩原市役所,325-8501,那須塩原市共墾社108-2,0287-62-7111,数値地図,36.961703,140.04608,
9214,さくら市,さくらし,さくら市役所,329-1392,さくら市氏家2771,028-681-1111,数値地図,36.685259,139.96646,
9215,那須烏山市,なすからすやまし,那須烏山市役所,321-0692,那須烏山市中央1-1-1,0287-83-1111,数値地図,36.656851,140.151555,
9216,下野市,しもつけし,下野市役所,329-0492,下野市笹原26,0285-32-8888,Google Maps,36.395164,139.852073,
9301,上三川町,かみのかわまち,上三川町役場,329-0696,河内郡上三川町しらさぎ1-1,0285-56-9111,数値地図,36.439287,139.910087,
9342,益子町,ましこまち,益子町役場,321-4293,芳賀郡益子町大字益子2030,0285-72-2111,数値地図,36.467344,140.093153,
9343,茂木町,もてぎまち,茂木町役場,321-3598,芳賀郡茂木町大字茂木155,0285-63-1111,数値地図,36.532172,140.187558,
9344,市貝町,いちかいまち,市貝町役場,321-3493,芳賀郡市貝町大字市塙1280,0285-68-1111,数値地図,36.54328,140.10212,
9345,芳賀町,はがまち,芳賀町役場,321-3392,芳賀郡芳賀町祖母井1020,028-677-1111,数値地図,36.548167,140.058068,
9361,壬生町,みぶまち,壬生町役場,321-0292,下都賀郡壬生町通町12-22,0282-81-1806,数値地図,36.427091,139.803929,
9364,野木町,のぎまち,野木町役場,329-0195,下都賀郡野木町大字丸林571,0280-57-4111,数値地図,36.233167,139.740858,
9384,塩谷町,しおやまち,塩谷町役場,329-2292,塩谷郡塩谷町大字玉生741,0287-45-1111,数値地図,36.777579,139.850578,
9386,高根沢町,たかねざわまち,高根沢町役場,329-1292,塩谷郡高根沢町大字石末2053,028-675-8100,数値地図,36.631017,139.986599,
9407,那須町,なすまち,那須町役場,329-3292,那須郡那須町大字寺子丙3-13,0287-72-6901,数値地図,37.019753,140.120962,
9411,那珂川町,なかがわまち,那珂川町役場,324-0692,那須郡那珂川町馬頭409,0287-92-1111,数値地図,36.738203,140.17144,
10000,群馬県,ぐんまけん,群馬県庁,371-8570,前橋市大手町1-1-1,027-223-1111,数値地図,36.391192,139.060947,
10201,前橋市,まえばしし,前橋市役所,371-8601,前橋市大手町2-12-1,027-224-1111,数値地図,36.389276,139.063558,
10202,高崎市,たかさきし,高崎市役所,370-8501,高崎市高松町35-1,027-321-1111,数値地図,36.321865,139.003565,
10203,桐生市,きりゅうし,桐生市役所,376-8501,桐生市織姫町1-1,0277-46-1111,数値地図,36.405168,139.330585,
10204,伊勢崎市,いせさきし,伊勢崎市役所,372-8501,伊勢崎市今泉町2-410,0270-24-5111,数値地図,36.311368,139.196655,
10205,太田市,おおたし,太田市役所,373-8718,太田市浜町2-35,0276-47-1111,数値地図,36.291624,139.375723,
10206,沼田市,ぬまたし,沼田市役所,378-8501,沼田市西倉内町780,0278-23-2111,数値地図,36.64594,139.044078,
10207,館林市,たてばやしし,館林市役所,374-8501,館林市城町1-1,0276-72-4111,数値地図,36.244884,139.542265,
10208,渋川市,しぶかわし,渋川市役所,377-8501,渋川市石原80,0279-22-2111,数値地図,36.489484,139.000447,
10209,藤岡市,ふじおかし,藤岡市役所,375-8601,藤岡市中栗須327,0274-22-1211,数値地図,36.258509,139.074588,
10210,富岡市,とみおかし,富岡市役所,370-2392,富岡市富岡1460-1,0274-62-1511,数値地図,36.259868,138.889968,
10211,安中市,あんなかし,安中市役所,379-0192,安中市安中1-23-13,027-382-1111,数値地図,36.326279,138.887242,
10212,みどり市,みどりし,みどり市役所,379-2395,みどり市笠懸町鹿2952,0277-76-2111,数値地図,36.394835,139.281145,
10344,榛東村,しんとうむら,榛東村役場,370-3593,北群馬郡榛東村大字新井790番地1,0279-54-2211,Google Maps,36.438612,138.967125,
10345,吉岡町,よしおかまち,吉岡町役場,370-3692,北群馬郡吉岡町大字下野田560,0279-54-3111,数値地図,36.44735,139.010393,
10366,上野村,うえのむら,上野村役場,370-1614,多野郡上野村大字川和11,0274-59-2111,数値地図,36.083248,138.777292,
10367,神流町,かんなまち,神流町役場,370-1592,多野郡神流町万場90-6,0274-57-2111,数値地図,36.115997,138.917027,
10382,下仁田町,しもにたまち,下仁田町役場,370-2601,甘楽郡下仁田町大字下仁田682,0274-82-2111,数値地図,36.2124,138.789119,
10383,南牧村,なんもくむら,南牧村役場,370-2806,甘楽郡南牧村大字大日向1098,0274-87-2011,数値地図,36.157572,138.711267,
10384,甘楽町,かんらまち,甘楽町役場,370-2292,甘楽郡甘楽町大字小幡161-1,0274-74-3131,数値地図,36.242981,138.921827,
10421,中之条町,なかのじょうまち,中之条町役場,377-0494,吾妻郡中之条町大字中之条町1091,0279-75-2111,数値地図,36.589886,138.841014,
10424,長野原町,ながのはらまち,長野原町役場,377-1392,吾妻郡長野原町大字長野原66-3,0279-82-2244,数値地図,36.552331,138.637591,
10425,嬬恋村,つまごいむら,嬬恋村役場,377-1692,吾妻郡嬬恋村大字大前110,0279-96-0511,数値地図,36.516665,138.530295,
10426,草津町,くさつまち,草津町役場,377-1792,吾妻郡草津町大字草津28,0279-88-0001,数値地図,36.620656,138.596147,
10428,高山村,たかやまむら,高山村役場,377-0792,吾妻郡高山村大字中山2856-1,0279-63-2111,数値地図,36.620747,138.943532,
10429,東吾妻町,ひがしあがつままち,東吾妻町役場,377-0892,吾妻郡東吾妻町大字原町594-3,0279-68-2111,数値地図,36.571332,138.825516,
10443,片品村,かたしなむら,片品村役場,378-0498,利根郡片品村大字鎌田3967-3,0278-58-2111,数値地図,36.772485,139.225193,
10444,川場村,かわばむら,川場村役場,378-0101,利根郡川場村大字谷地2390-2,0278-52-2111,数値地図,36.694658,139.106542,
10448,昭和村,しょうわむら,昭和村役場,379-1298,利根郡昭和村大字糸井388,0278-24-5111,数値地図,36.63958,139.065742,
10449,みなかみ町,みなかみまち,みなかみ町役場,379-1393,利根郡みなかみ町後閑318,0278-62-2111,数値地図,36.678991,138.999024,
10464,玉村町,たまむらまち,玉村町役場,370-1192,佐波郡玉村町大字下新田201,0270-65-2511,数値地図,36.304396,139.114888,
10521,板倉町,いたくらまち,板倉町役場,374-0192,邑楽郡板倉町大字板倉2067,0276-82-1111,数値地図,36.222943,139.61026,
10522,明和町,めいわまち,明和町役場,370-0795,邑楽郡明和町新里250-1,0276-84-3111,数値地図画像,36.211326,139.534462,
10523,千代田町,ちよだまち,千代田町役場,370-0598,邑楽郡千代田町大字赤岩1895-1,0276-86-2111,数値地図,36.217745,139.442498,
10524,大泉町,おおいずみまち,大泉町役場,370-0595,邑楽郡大泉町日の出55-1,0276-63-3111,数値地図,36.247824,139.404972,
10525,邑楽町,おうらまち,邑楽町役場,370-0692,邑楽郡邑楽町大字中野2570番地1,0276-88-5511,数値地図,36.263796,139.467604,
11000,埼玉県,さいたまけん,埼玉県庁,330-9301,さいたま市浦和区高砂3-15-1,048-824-2111,数値地図,35.856907,139.648854,
11100,さいたま市,さいたまし,さいたま市役所,330-9588,さいたま市浦和区常盤6-4-4,048-829-1111,数値地図,35.861601,139.645354,
11101,さいたま市西区,さいたましにしく,西区役所,331-8587,さいたま市西区大字指扇3743,048-622-1111,数値地図画像,35.925294,139.579538,
11102,さいたま市北区,さいたましきたく,北区役所,331-8586,さいたま市北区宮原町1丁目852番地1,048-653-1111,数値地図画像,35.929981,139.620843,
11103,さいたま市大宮区,さいたましおおみやく,大宮区役所,330-8501,さいたま市大宮区大門町3-1,048-657-0111,数値地図画像,35.906461,139.628655,
11104,さいたま市見沼区,さいたましみぬまく,見沼区役所,337-8586,さいたま市見沼区堀崎町12-36,048-687-1111,数値地図画像,35.935234,139.654483,
11105,さいたま市中央区,さいたましちゅうおうく,中央区役所,338-8686,さいたま市中央区下落合5-7-10,048-856-1111,数値地図画像,35.883894,139.626117,
11106,さいたま市桜区,さいたましさくらく,桜区役所,338-8586,さいたま市桜区道場4-3-1,048-858-1111,数値地図画像,35.857074,139.609225,
11107,さいたま市浦和区,さいたましうらわく,浦和区役所,330-9586,さいたま市浦和区常盤6-4-4,048-825-1111,数値地図,35.861601,139.645354,
11108,さいたま市南区,さいたましみなみく,南区役所,336-8586,さいたま市南区別所7-20-1,048-838-1111,Google Maps,35.84526,139.645437,
11109,さいたま市緑区,さいたましみどりく,緑区役所,336-8587,さいたま市緑区大字中尾975-1,048-874-1111,数値地図画像,35.87131,139.683925,
11110,さいたま市岩槻区,さいたましいわつきく,岩槻区役所,339-8585,さいたま市岩槻区本町3-2-5,048-790-0111,Google Maps,35.949905,139.694194,
11201,川越市,かわごえし,川越市役所,350-8601,川越市元町1-3-1,049-224-8811,数値地図,35.925117,139.485837,
11202,熊谷市,くまがやし,熊谷市役所,360-8601,熊谷市宮町2-47-1,048-524-1111,数値地図,36.147334,139.388618,
11203,川口市,かわぐちし,川口市役所,332-8601,川口市青木2-1-1,048-258-1110,数値地図,35.807887,139.724071,
11206,行田市,ぎょうだし,行田市役所,361-8601,行田市本丸2-5,048-556-1111,数値地図,36.138809,139.455751,
11207,秩父市,ちちぶし,秩父市役所,368-8686,秩父市熊木町8-15,0494-22-2211,数値地図,35.991682,139.085458,
11208,所沢市,ところざわし,所沢市役所,359-8501,所沢市並木1-1-1,04-2998-1111,数値地図,35.799549,139.46876,
11209,飯能市,はんのうし,飯能市役所,357-8501,飯能市大字双柳1-1,042-973-2111,数値地図,35.855761,139.327797,
11210,加須市,かぞし,加須市役所,347-8501,加須市三俣2-1-1,0480-62-1111,数値地図,36.131399,139.601903,
11211,本庄市,ほんじょうし,本庄市役所,367-8501,本庄市本庄3-5-3,0495-25-1111,数値地図,36.243737,139.190381,
11212,東松山市,ひがしまつやまし,東松山市役所,355-8601,東松山市松葉町1-1-58,0493-23-2221,数値地図,36.042126,139.400011,
11214,春日部市,かすかべし,春日部市役所,344-8577,春日部市中央6-2,048-736-1111,数値地図,35.975226,139.752478,
11215,狭山市,さやまし,狭山市役所,350-1380,狭山市入間川1-23-5,04-2953-1111,数値地図,35.852986,139.412207,
11216,羽生市,はにゅうし,羽生市役所,348-8601,羽生市東6-15,048-561-1121,数値地図,36.17267,139.548572,
11217,鴻巣市,こうのすし,鴻巣市役所,365-8601,鴻巣市中央1-1,048-541-1321,数値地図,36.065905,139.522219,
11218,深谷市,ふかやし,深谷市役所,366-8501,深谷市仲町11-1,048-571-1211,数値地図,36.197465,139.28143,
11219,上尾市,あげおし,上尾市役所,362-8501,上尾市本町3-1-1,048-775-5111,数値地図,35.977443,139.593327,
11221,草加市,そうかし,草加市役所,340-8550,草加市高砂1-1-1,048-922-0151,数値地図,35.825416,139.805396,
11222,越谷市,こしがやし,越谷市役所,343-8501,越谷市越ヶ谷4-2-1,048-964-2111,数値地図,35.891072,139.79084,
11223,蕨市,わらびし,蕨市役所,335-8501,蕨市中央5-14-15,048-432-3200,数値地図,35.825633,139.679519,
11224,戸田市,とだし,戸田市役所,335-8588,戸田市上戸田1-18-1,048-441-1800,数値地図,35.817579,139.677825,
11225,入間市,いるまし,入間市役所,358-8511,入間市豊岡1-16-1,04-2964-1111,数値地図,35.835849,139.391126,
11227,朝霞市,あさかし,朝霞市役所,351-8501,朝霞市本町1-1-1,048-463-1111,数値地図,35.797274,139.593666,
11228,志木市,しきし,志木市役所,353-8501,志木市中宗岡1-1-1,048-473-1111,数値地図,35.836603,139.580305,
11229,和光市,わこうし,和光市役所,351-0192,和光市広沢1-5,048-464-1111,数値地図,35.781416,139.605721,
11230,新座市,にいざし,新座市役所,352-8623,新座市野火止1-1-1,048-477-1111,数値地図,35.793413,139.565252,
11231,桶川市,おけがわし,桶川市役所,363-8501,桶川市大字上日出谷936-1,048-786-3211,Google Maps,36.005776,139.542481,仮設庁舎（プレハブ）
11232,久喜市,くきし,久喜市役所,346-8501,久喜市大字下早見85-3,0480-22-1111,数値地図,36.062186,139.666899,
11233,北本市,きたもとし,北本市役所,364-8633,北本市本町1-111,048-591-1111,数値地図,36.027187,139.530164,
11234,八潮市,やしおし,八潮市役所,340-8588,八潮市中央1-2-1,048-996-2111,数値地図,35.822666,139.839088,
11235,富士見市,ふじみし,富士見市役所,354-8511,富士見市大字鶴馬1800-1,049-251-2711,数値地図,35.856572,139.549251,
11237,三郷市,みさとし,三郷市役所,341-8501,三郷市花和田648-1,048-953-1111,数値地図,35.830137,139.872391,
11238,蓮田市,はすだし,蓮田市役所,349-0193,蓮田市大字黒浜2799-1,048-768-3111,数値地図,35.994279,139.662291,
11239,坂戸市,さかどし,坂戸市役所,350-0292,坂戸市千代田1-1-1,049-283-1331,数値地図,35.957274,139.403014,
11240,幸手市,さってし,幸手市役所,340-0192,幸手市東4-6-8,0480-43-1111,数値地図,36.078074,139.725866,
11241,鶴ヶ島市,つるがしまし,鶴ヶ島市役所,350-2292,鶴ヶ島市大字三ツ木16-1,049-271-1111,数値地図,35.934529,139.393153,
11242,日高市,ひだかし,日高市役所,350-1292,日高市大字南平沢1020,042-989-2111,数値地図,35.907781,139.339129,
11243,吉川市,よしかわし,吉川市役所,342-8501,吉川市吉川2-1-1,048-982-5111,数値地図,35.891074,139.841419,
11245,ふじみ野市,ふじみのし,ふじみ野市役所,356-8501,ふじみ野市福岡1-1-1,049-261-2611,数値地図,35.879207,139.520363,
11246,白岡市,しらおかし,白岡市役所,349-0292,白岡市千駄野432,0480-92-1111,数値地図,36.018997,139.676927,
11301,伊奈町,いなまち,伊奈町役場,362-8517,北足立郡伊奈町大字小室9493,048-721-2111,数値地図,35.999998,139.623963,
11324,三芳町,みよしまち,三芳町役場,354-8555,入間郡三芳町大字藤久保1100-1,049-258-0019,数値地図,35.828241,139.526587,
11326,毛呂山町,もろやままち,毛呂山町役場,350-0493,入間郡毛呂山町中央2-1,049-295-2112,数値地図,35.941636,139.316078,
11327,越生町,おごせまち,越生町役場,350-0494,入間郡越生町大字越生900-2,049-292-3121,数値地図,35.964522,139.294246,
11341,滑川町,なめがわまち,滑川町役場,355-8585,比企郡滑川町大字福田750-1,0493-56-2211,数値地図,36.065983,139.360874,
11342,嵐山町,らんざんまち,嵐山町役場,355-0211,比企郡嵐山町大字杉山1030-1,0493-62-2150,数値地図,36.056596,139.320323,
11343,小川町,おがわまち,小川町役場,355-0392,比企郡小川町大字大塚55,0493-72-1221,数値地図,36.05665,139.2618,
11346,川島町,かわじままち,川島町役場,350-0192,比企郡川島町大字下八ツ林870-1,049-297-1811,Google Maps,35.992494,139.484352,
11347,吉見町,よしみまち,吉見町役場,355-0192,比企郡吉見町大字下細谷411,0493-54-1511,数値地図,36.039878,139.453755,
11348,鳩山町,はとやままち,鳩山町役場,350-0392,比企郡鳩山町大字大豆戸184-16,049-296-1211,数値地図,35.981576,139.33402,
11349,ときがわ町,ときがわまち,ときがわ町役場,355-0395,比企郡ときがわ町大字玉川2490,0493-65-1521,数値地図,36.008656,139.296827,
11361,横瀬町,よこぜまち,横瀬町役場,368-0072,秩父郡横瀬町大字横瀬4545,0494-25-0111,数値地図,35.987322,139.100151,
11362,皆野町,みなのまち,皆野町役場,369-1492,秩父郡皆野町大字皆野1420-1,0494-62-1230,数値地図,36.070812,139.098815,
11363,長瀞町,ながとろまち,長瀞町役場,369-1392,秩父郡長瀞町大字本野上1035-1,0494-66-3111,数値地図,36.114833,139.109894,
11365,小鹿野町,おがのまち,小鹿野町役場,368-0192,秩父郡小鹿野町小鹿野89,0494-75-1221,数値地図,36.017095,139.008604,
11369,東秩父村,ひがしちちぶむら,東秩父村役場,355-0393,秩父郡東秩父村大字御堂634,0493-82-1221,数値地図,36.05812,139.194695,
11381,美里町,みさとまち,美里町役場,367-0194,児玉郡美里町大字木部323-1,0495-76-1111,数値地図,36.177076,139.181301,
11383,神川町,かみかわまち,神川町役場,367-0292,児玉郡神川町大字植竹909,0495-77-2111,数値地図,36.213876,139.101836,
11385,上里町,かみさとまち,上里町役場,369-0392,児玉郡上里町大字七本木5518,0495-35-1221,数値地図,36.251818,139.144776,
11408,寄居町,よりいまち,寄居町役場,369-1292,大里郡寄居町大字寄居1180-1,048-581-2121,数値地図,36.118251,139.192997,
11442,宮代町,みやしろまち,宮代町役場,345-8504,南埼玉郡宮代町笠原1-4-1,0480-34-1111,数値地図画像,36.022723,139.722489,
11464,杉戸町,すぎとまち,杉戸町役場,345-8502,北葛飾郡杉戸町清地2-9-29,0480-33-1111,数値地図,36.025636,139.7367,
11465,松伏町,まつぶしまち,松伏町役場,343-0192,北葛飾郡松伏町大字松伏2424,048-991-2711,数値地図,35.925762,139.81528,
12000,千葉県,ちばけん,千葉県庁,260-8667,千葉市中央区市場町1-1,043-223-2110,数値地図,35.604588,140.123184,
12100,千葉市,ちばし,千葉市役所,260-8722,千葉市中央区千葉港1-1,043-245-5111,数値地図,35.607224,140.106407,
12101,千葉市中央区,ちばしちゅうおうく,中央区役所,260-8733,千葉市中央区中央3-10-8,043-221-2111,数値地図,35.608976,140.124656,
12102,千葉市花見川区,ちばしはなみがわく,花見川区役所,262-8733,千葉市花見川区瑞穂1-1,043-275-6111,数値地図,35.662854,140.069047,
12103,千葉市稲毛区,ちばしいなげく,稲毛区役所,263-8733,千葉市稲毛区穴川4-12-1,043-284-6111,数値地図,35.636275,140.10721,
12104,千葉市若葉区,ちばしわかばく,若葉区役所,264-8733,千葉市若葉区桜木北2-1-1,043-233-8111,数値地図,35.634113,140.155514,
12105,千葉市緑区,ちばしみどりく,緑区役所,266-8733,千葉市緑区おゆみ野3-15-3,043-292-8111,数値地図画像,35.560334,140.176082,
12106,千葉市美浜区,ちばしみはまく,美浜区役所,261-8733,千葉市美浜区真砂5-15-1,043-270-3111,数値地図,35.640385,140.063132,
12202,銚子市,ちょうしし,銚子市役所,288-8601,銚子市若宮町1-1,0479-24-8181,数値地図,35.734645,140.826694,
12203,市川市,いちかわし,市川市役所,272-8501,市川市南八幡2-20-2,047-334-1111,Google Maps,35.713597,139.927903,仮設庁舎（プレハブ）
12204,船橋市,ふなばしし,船橋市役所,273-8501,船橋市湊町2-10-25,047-436-2111,数値地図,35.6946,139.982526,
12205,館山市,たてやまし,館山市役所,294-8601,館山市北条1145-1,0470-22-3111,数値地図,34.996611,139.869884,
12206,木更津市,きさらづし,木更津市役所,292-8501,木更津市富士見1-2-1,0438-23-7111,Google Maps,35.381208,139.924905,仮庁舎
12207,松戸市,まつどし,松戸市役所,271-8588,松戸市根本387-5,047-366-1111,数値地図,35.78767,139.903168,
12208,野田市,のだし,野田市役所,278-8550,野田市鶴奉7-1,04-7125-1111,数値地図,35.955036,139.874829,
12210,茂原市,もばらし,茂原市役所,297-8511,茂原市道表1,0475-23-2111,数値地図,35.428361,140.287899,
12211,成田市,なりたし,成田市役所,286-8585,成田市花崎町760,0476-22-1111,数値地図,35.776627,140.318322,
12212,佐倉市,さくらし,佐倉市役所,285-8501,佐倉市海隣寺町97,043-484-1111,数値地図,35.723825,140.223861,
12213,東金市,とうがねし,東金市役所,283-8511,東金市東岩崎1番地1,0475-50-1111,数値地図,35.559957,140.366105,
12215,旭市,あさひし,旭市役所,289-2595,旭市ニの1920,0479-62-1212,数値地図,35.720391,140.646596,
12216,習志野市,ならしのし,習志野市役所,275-8601,習志野市鷺沼2-1-1,047-451-1151,Google Maps,35.68164,140.027341,新庁舎
12217,柏市,かしわし,柏市役所,277-8505,柏市柏5-10-1,04-7167-1111,数値地図,35.868162,139.976352,
12218,勝浦市,かつうらし,勝浦市役所,299-5292,勝浦市新官1343-1,0470-73-1211,数値地図,35.152453,140.320979,
12219,市原市,いちはらし,市原市役所,290-8501,市原市国分寺台中央1-1-1,0436-22-1111,数値地図,35.49796,140.115548,
12220,流山市,ながれやまし,流山市役所,270-0192,流山市平和台1-1-1,04-7158-1111,数値地図,35.85619,139.902471,
12221,八千代市,やちよし,八千代市役所,276-8501,八千代市大和田新田312-5,047-483-1151,数値地図,35.72246,140.099819,
12222,我孫子市,あびこし,我孫子市役所,270-1192,我孫子市我孫子1858,04-7185-1111,数値地図,35.864136,140.028347,
12223,鴨川市,かもがわし,鴨川市役所,296-8601,鴨川市横渚1450,04-7092-1111,数値地図,35.114042,140.09886,
12224,鎌ケ谷市,かまがやし,鎌ケ谷市役所,273-0195,鎌ケ谷市新鎌ケ谷2-6-1,047-445-1141,数値地図,35.776841,140.000715,
12225,君津市,きみつし,君津市役所,299-1192,君津市久保2-13-1,0439-56-1581,数値地図,35.330647,139.902457,
12226,富津市,ふっつし,富津市役所,293-8506,富津市下飯野2443,0439-80-1222,数値地図,35.304122,139.857018,
12227,浦安市,うらやすし,浦安市役所,279-8501,浦安市猫実1-1-1,047-351-1111,数値地図,35.653633,139.901561,
12228,四街道市,よつかいどうし,四街道市役所,284-8555,四街道市鹿渡無番地,043-421-2111,数値地図,35.66994,140.168177,
12229,袖ケ浦市,そでがうらし,袖ケ浦市役所,299-0292,袖ケ浦市坂戸市場1-1,0438-62-2111,数値地図,35.42991,139.954591,
12230,八街市,やちまたし,八街市役所,289-1192,八街市八街ほ35-29,043-443-1111,数値地図,35.665833,140.318188,
12231,印西市,いんざいし,印西市役所,270-1396,印西市大森2364-2,0476-42-5111,数値地図,35.832337,140.145782,
12232,白井市,しろいし,白井市役所,270-1492,白井市復1123,047-492-1111,数値地図,35.791592,140.056429,
12233,富里市,とみさとし,富里市役所,286-0292,富里市七栄652-1,0476-93-1111,数値地図,35.726744,140.34296,
12234,南房総市,みなみぼうそうし,南房総市役所,299-2492,南房総市富浦町青木28,0470-33-1021,数値地図,35.043187,139.840136,
12235,匝瑳市,そうさし,匝瑳市役所,289-2198,匝瑳市八日市場ハ793番地2,0479-73-0084,数値地図,35.707864,140.564328,
12236,香取市,かとりし,香取市役所,287-8501,香取市佐原ロ2127,0478-54-1111,数値地図,35.897699,140.499245,
12237,山武市,さんむし,山武市役所,289-1392,山武市殿台296,0475-80-1112,数値地図,35.602813,140.413514,
12238,いすみ市,いすみし,いすみ市役所,298-8501,いすみ市大原7400-1,0470-62-1111,数値地図,35.253993,140.385278,
12239,大網白里市,おおあみしらさとし,大網白里市役所,299-3292,大網白里市大網115-2,0475-70-0300,数値地図,35.52171,140.321001,
12322,酒々井町,しすいまち,酒々井町役場,285-8510,印旛郡酒々井町中央台4-11,043-496-1171,数値地図,35.724882,140.269552,
12329,栄町,さかえまち,栄町役場,270-1592,印旛郡栄町安食台1-2,0476-95-1111,数値地図,35.840866,140.243966,
12342,神崎町,こうざきまち,神崎町役場,289-0292,香取郡神崎町神崎本宿163,0478-72-2111,数値地図,35.901558,140.405198,
12347,多古町,たこまち,多古町役場,289-2292,香取郡多古町多古584,0479-76-2611,数値地図,35.735553,140.467808,
12349,東庄町,とうのしょうまち,東庄町役場,289-0692,香取郡東庄町笹川い4713-131,0478-86-1111,数値地図画像,35.83715,140.668786,
12403,九十九里町,くじゅうくりまち,九十九里町役場,283-0195,山武郡九十九里町片貝4099,0475-70-3100,数値地図,35.535017,140.440402,
12409,芝山町,しばやままち,芝山町役場,289-1692,山武郡芝山町小池992,0479-77-3901,数値地図,35.693055,140.41426,
12410,横芝光町,よこしばひかりまち,横芝光町役場,289-1793,山武郡横芝光町宮川11902,0479-84-1211,数値地図,35.665562,140.504254,
12421,一宮町,いちのみやまち,一宮町役場,299-4396,長生郡一宮町一宮2457,0475-42-2111,数値地図,35.372759,140.368778,
12422,睦沢町,むつざわまち,睦沢町役場,299-4492,長生郡睦沢町下之郷1650-1,0475-44-1111,数値地図画像,35.3611,140.31914,
12423,長生村,ちょうせいむら,長生村役場,299-4394,長生郡長生村本郷1-77,0475-32-2111,数値地図,35.412198,140.354084,
12424,白子町,しらこまち,白子町役場,299-4292,長生郡白子町関5074-2,0475-33-2111,数値地図,35.454332,140.374358,
12426,長柄町,ながらまち,長柄町役場,297-0298,長生郡長柄町桜谷712,0475-35-2111,数値地図,35.430775,140.228042,
12427,長南町,ちょうなんまち,長南町役場,297-0192,長生郡長南町長南2110,0475-46-2111,数値地図,35.386587,140.237126,
12441,大多喜町,おおたきまち,大多喜町役場,298-0292,夷隅郡大多喜町大多喜93,0470-82-2111,数値地図,35.284852,140.245458,
12443,御宿町,おんじゅくまち,御宿町役場,299-5192,夷隅郡御宿町須賀1522,0470-68-2511,数値地図,35.19228,140.348614,
12463,鋸南町,きょなんまち,鋸南町役場,299-2192,安房郡鋸南町下佐久間3458,0470-55-2111,数値地図,35.111012,139.835467,
13000,東京都,とうきょうと,東京都庁,163-8001,新宿区西新宿2-8-1,03-5321-1111,数値地図,35.689568,139.691717,
13101,千代田区,ちよだく,千代田区役所,102-8688,千代田区九段南1-2-1,03-3264-2111,数値地図,35.694003,139.753634,
13102,中央区,ちゅうおうく,中央区役所,104-8404,中央区築地1-1-1,03-3543-0211,数値地図,35.670766,139.772127,
13103,港区,みなとく,港区役所,105-8511,港区芝公園1-5-25,03-3578-2111,数値地図,35.658073,139.751546,
13104,新宿区,しんじゅくく,新宿区役所,160-8484,新宿区歌舞伎町1-4-1,03-3209-1111,数値地図,35.693984,139.703521,
13105,文京区,ぶんきょうく,文京区役所,112-8555,文京区春日1-16-21,03-3812-7111,数値地図,35.707956,139.752266,
13106,台東区,たいとうく,台東区役所,110-8615,台東区東上野4-5-6,03-5246-1111,数値地図,35.712623,139.780015,
13107,墨田区,すみだく,墨田区役所,130-8640,墨田区吾妻橋1-23-20,03-5608-1111,数値地図,35.710568,139.801707,
13108,江東区,こうとうく,江東区役所,135-8383,江東区東陽4-11-28,03-3647-9111,数値地図,35.673156,139.817151,
13109,品川区,しながわく,品川区役所,140-8715,品川区広町2-1-36,03-3777-1111,数値地図,35.608967,139.730189,
13110,目黒区,めぐろく,目黒区役所,153-8573,目黒区上目黒2-19-15,03-3715-1111,数値地図,35.641407,139.698274,
13111,大田区,おおたく,大田区役所,144-8621,大田区蒲田5-13-14,03-5744-1111,数値地図,35.561389,139.716081,
13112,世田谷区,せたがやく,世田谷区役所,154-8504,世田谷区世田谷4-21-27,03-5432-1111,数値地図,35.646211,139.653166,
13113,渋谷区,しぶやく,渋谷区役所,150-8010,渋谷区渋谷1-18-21,03-3463-1211,Google Maps,35.661993,139.703713,仮設庁舎（プレハブ）
13114,中野区,なかのく,中野区役所,164-8501,中野区中野4-8-1,03-3389-1111,数値地図,35.707426,139.663913,
13115,杉並区,すぎなみく,杉並区役所,166-8570,杉並区阿佐谷南1-15-1,03-3312-2111,数値地図,35.699565,139.636499,
13116,豊島区,としまく,豊島区役所,171-8422,豊島区南池袋2-45-1,03-3981-1111,Google Maps,35.726126,139.716597,
13117,北区,きたく,北区役所,114-8508,北区王子本町1-15-22,03-3908-1111,数値地図,35.752784,139.733683,
13118,荒川区,あらかわく,荒川区役所,116-8501,荒川区荒川2-2-3,03-3802-3111,数値地図,35.736178,139.78332,
13119,板橋区,いたばしく,板橋区役所,173-8501,板橋区板橋2-66-1,03-3964-1111,数値地図,35.750978,139.709296,
13120,練馬区,ねりまく,練馬区役所,176-8501,練馬区豊玉北6-12-1,03-3993-1111,数値地図,35.735645,139.652246,
13121,足立区,あだちく,足立区役所,120-8510,足立区中央本町1-17-1,03-3880-5111,数値地図,35.774922,139.804592,
13122,葛飾区,かつしかく,葛飾区役所,124-8555,葛飾区立石5-13-1,03-3695-1111,数値地図,35.743427,139.847201,
13123,江戸川区,えどがわく,江戸川区役所,132-8501,江戸川区中央1-4-1,03-3652-1151,数値地図,35.706653,139.868312,
13201,八王子市,はちおうじし,八王子市役所,192-8501,八王子市元本郷町3-24-1,042-626-3111,数値地図,35.666506,139.315888,
13202,立川市,たちかわし,立川市役所,190-8666,立川市泉町1156-9,042-523-2111,Google Maps,35.713981,139.407846,
13203,武蔵野市,むさしのし,武蔵野市役所,180-8777,武蔵野市緑町2-2-28,0422-51-5131,数値地図,35.717867,139.566199,
13204,三鷹市,みたかし,三鷹市役所,181-8555,三鷹市野崎1-1-1,0422-45-1151,数値地図,35.683315,139.559478,
13205,青梅市,おうめし,青梅市役所,198-8701,青梅市東青梅1-11-1,0428-22-1111,数値地図,35.788185,139.274971,
13206,府中市,ふちゅうし,府中市役所,183-8703,府中市宮西町2-24,042-364-4111,数値地図,35.668954,139.477652,
13207,昭島市,あきしまし,昭島市役所,196-8511,昭島市田中町1-17-1,042-544-5111,数値地図,35.705669,139.353523,
13208,調布市,ちょうふし,調布市役所,182-8511,調布市小島町2-35-1,042-481-7111,数値地図,35.650652,139.540926,
13209,町田市,まちだし,町田市役所,194-8520,町田市森野2-2-22,042-722-3111,数値地図,35.546644,139.438562,
13210,小金井市,こがねいし,小金井市役所,184-8504,小金井市本町6-6-3,042-383-1111,数値地図,35.699534,139.503121,
13211,小平市,こだいらし,小平市役所,187-8701,小平市小川町2-1333,042-341-1211,数値地図,35.728502,139.477483,
13212,日野市,ひのし,日野市役所,191-0016,日野市神明1-12-1,042-585-1111,数値地図,35.671396,139.394937,
13213,東村山市,ひがしむらやまし,東村山市役所,189-8501,東村山市本町1-2-3,042-393-5111,数値地図,35.754638,139.468539,
13214,国分寺市,こくぶんじし,国分寺市役所,185-8501,国分寺市戸倉1-6-1,042-325-0111,数値地図,35.710948,139.462236,
13215,国立市,くにたちし,国立市役所,186-8501,国立市富士見台2-47-1,042-576-2111,数値地図,35.683923,139.441461,
13218,福生市,ふっさし,福生市役所,197-8501,福生市本町5,042-551-1511,数値地図,35.738692,139.326691,
13219,狛江市,こまえし,狛江市役所,201-8585,狛江市和泉本町1-1-5,03-3430-1111,数値地図,35.634794,139.578701,
13220,東大和市,ひがしやまとし,東大和市役所,207-8585,東大和市中央3-930,042-563-2111,数値地図,35.745416,139.426515,
13221,清瀬市,きよせし,清瀬市役所,204-8511,清瀬市中里5-842,042-492-5111,数値地図,35.785775,139.52645,
13222,東久留米市,ひがしくるめし,東久留米市役所,203-8555,東久留米市本町3-3-1,042-470-7777,数値地図,35.758028,139.529811,
13223,武蔵村山市,むさしむらやまし,武蔵村山市役所,208-8501,武蔵村山市本町1-1-1,042-565-1111,数値地図,35.75483,139.387407,
13224,多摩市,たまし,多摩市役所,206-8666,多摩市関戸6-12-1,042-375-8111,数値地図,35.636984,139.446295,
13225,稲城市,いなぎし,稲城市役所,206-8601,稲城市東長沼2111,042-378-2111,数値地図,35.638015,139.504597,
13227,羽村市,はむらし,羽村市役所,205-8601,羽村市緑ヶ丘5-2-1,042-555-1111,数値地図,35.76716,139.311135,
13228,あきる野市,あきるのし,あきる野市役所,197-0814,あきる野市二宮350,042-558-1111,数値地図,35.729359,139.293805,
13229,西東京市,にしとうきょうし,西東京市役所,188-8666,西東京市南町5-6-13,042-464-1311,数値地図,35.725754,139.538451,
13303,瑞穂町,みずほまち,瑞穂町役場,190-1292,西多摩郡瑞穂町大字箱根ヶ崎2335,042-557-0501,数値地図,35.772022,139.353965,
13305,日の出町,ひのでまち,日の出町役場,190-0192,西多摩郡日の出町平井2780,042-597-0511,数値地図,35.742162,139.257391,
13307,檜原村,ひのはらむら,檜原村役場,190-0212,西多摩郡檜原村467-1,042-598-1011,数値地図,35.72683,139.148902,
13308,奥多摩町,おくたままち,奥多摩町役場,198-0212,西多摩郡奥多摩町氷川215-6,0428-83-2111,数値地図,35.809626,139.096322,
13361,大島町,おおしままち,大島町役場,100-0101,大島町元町1-1-14,04992-2-1443,数値地図,34.750036,139.355689,
13362,利島村,としまむら,利島村役場,100-0301,利島村248,04992-9-0011,数値地図,34.529296,139.282112,
13363,新島村,にいじまむら,新島村役場,100-0402,新島村本村1-1-1,04992-5-0240,数値地図,34.377045,139.257096,
13364,神津島村,こうづしまむら,神津島村役場,100-0601,神津島村904,04992-8-0011,数値地図,34.205524,139.13461,
13381,三宅村,みやけむら,三宅村役場,100-1212,三宅島三宅村阿古497,04994-5-0981,数値地図画像,34.075996,139.479858,
13382,御蔵島村,みくらじまむら,御蔵島村役場,100-1301,御蔵島村字入かねが沢,04994-8-2121,数値地図,33.89731,139.595933,
13401,八丈町,はちじょうまち,八丈町役場,100-1498,八丈島八丈町大賀郷2551-2,04996-2-1121,Google Maps,33.112671,139.788911,
13402,青ヶ島村,あおがしまむら,青ヶ島村役場,100-1701,青ヶ島村無番地,04996-9-0111,数値地図,32.466881,139.763369,
13421,小笠原村,おがさわらむら,小笠原村役場,100-2101,小笠原村父島字西町,04998-2-3111,数値地図,27.094527,142.191804,
14000,神奈川県,かながわけん,神奈川県庁,231-8588,横浜市中区日本大通1,045-210-1111,数値地図,35.44771,139.642536,
14100,横浜市,よこはまし,横浜市役所,231-0017,横浜市中区港町1-1,045-671-2121,数値地図,35.444155,139.637981,
14101,横浜市鶴見区,よこはましつるみく,鶴見区役所,230-0051,横浜市鶴見区鶴見中央3-20-1,045-510-1818,数値地図,35.508342,139.682614,
14102,横浜市神奈川区,よこはましかながわく,神奈川区役所,221-0824,横浜市神奈川区広台太田町3-8,045-411-7171,数値地図,35.477011,139.629425,
14103,横浜市西区,よこはましにしく,西区役所,220-0051,横浜市西区中央1-5-10,045-320-8484,数値地図,35.45357,139.616927,
14104,横浜市中区,よこはましなかく,中区役所,231-0021,横浜市中区日本大通35,045-224-8181,数値地図,35.444432,139.643231,
14105,横浜市南区,よこはましみなみく,南区役所,232-0024,横浜市南区浦舟町2-33,045-341-1212,Google Maps,35.434423,139.627509,
14106,横浜市保土ケ谷区,よこはましほどがやく,保土ケ谷区役所,240-0001,横浜市保土ケ谷区川辺町2-9,045-334-6262,数値地図,35.459986,139.59604,
14107,横浜市磯子区,よこはましいそごく,磯子区役所,235-0016,横浜市磯子区磯子3-5-1,045-750-2323,数値地図,35.402328,139.618761,
14108,横浜市金沢区,よこはましかなざわく,金沢区役所,236-0021,横浜市金沢区泥亀2-9-1,045-788-7878,数値地図,35.337475,139.624539,
14109,横浜市港北区,よこはましこうほくく,港北区役所,222-0032,横浜市港北区大豆戸町26-1,045-540-2323,数値地図,35.51898,139.633035,
14110,横浜市戸塚区,よこはましとつかく,戸塚区役所,244-0003,横浜市戸塚区戸塚町16-17,045-866-8484,Google Maps,35.400013,139.533482,
14111,横浜市港南区,よこはましこうなんく,港南区役所,233-0003,横浜市港南区港南4-2-10,045-847-8484,Google Maps,35.400795,139.592511,新庁舎
14112,横浜市旭区,よこはましあさひく,旭区役所,241-0022,横浜市旭区鶴ヶ峰1-4-12,045-954-6161,数値地図,35.474733,139.544794,
14113,横浜市緑区,よこはましみどりく,緑区役所,226-0013,横浜市緑区寺山町118,045-930-2323,数値地図,35.512395,139.538072,
14114,横浜市瀬谷区,よこはましせやく,瀬谷区役所,246-0021,横浜市瀬谷区二ツ橋町190,045-367-5656,数値地図,35.466345,139.499021,
14115,横浜市栄区,よこはましさかえく,栄区役所,247-0005,横浜市栄区桂町303-19,045-894-8181,数値地図,35.364331,139.5541,
14116,横浜市泉区,よこはましいずみく,泉区役所,245-0016,横浜市泉区和泉町4636-2,045-800-2323,数値地図,35.417851,139.488689,
14117,横浜市青葉区,よこはましあおばく,青葉区役所,225-0024,横浜市青葉区市ヶ尾町31-4,045-978-2323,数値地図,35.552807,139.537238,
14118,横浜市都筑区,よこはましつづきく,都筑区役所,224-0032,横浜市都筑区茅ヶ崎中央32-1,045-948-2323,数値地図,35.544781,139.570624,
14130,川崎市,かわさきし,川崎市役所,210-8577,川崎市川崎区宮本町1,044-200-2111,数値地図,35.530811,139.703029,
14131,川崎市川崎区,かわさきしかわさきく,川崎区役所,210-8570,川崎市川崎区東田町8,044-201-3113,数値地図,35.529394,139.703279,
14132,川崎市幸区,かわさきしさいわいく,幸区役所,212-8570,川崎市幸区戸手本町1-11-1,044-556-6666,数値地図,35.544337,139.687585,
14133,川崎市中原区,かわさきしなかはらく,中原区役所,211-8570,川崎市中原区小杉町3-245,044-744-3113,数値地図,35.576221,139.655753,
14134,川崎市高津区,かわさきしたかつく,高津区役所,213-8570,川崎市高津区下作延2-8-1,044-861-3113,数値地図,35.599412,139.608035,
14135,川崎市多摩区,かわさきしたまく,多摩区役所,214-8570,川崎市多摩区登戸1775-1,044-935-3113,数値地図,35.61963,139.56201,
14136,川崎市宮前区,かわさきしみやまえく,宮前区役所,216-8570,川崎市宮前区宮前平2-20-5,044-856-3113,数値地図,35.58919,139.578649,
14137,川崎市麻生区,かわさきしあさおく,麻生区役所,215-8570,川崎市麻生区万福寺1-5-1,044-965-5100,数値地図,35.603772,139.505877,
14150,相模原市,さがみはらし,相模原市役所,252-5277,相模原市中央区中央2-11-15,042-754-1111,数値地図,35.571407,139.37322,
14151,相模原市緑区,さがみはらしみどりく,緑区役所,252-5177,相模原市緑区西橋本5-3-21,042-775-8802,Google Maps,35.595639,139.33759,
14152,相模原市中央区,さがみはらしちゅうおうく,中央区役所,252-5277,相模原市中央区中央2-11-15,042-769-9802,Google Maps,35.571384,139.373246,
14153,相模原市南区,さがみはらしみなみく,南区役所,252-0377,相模原市南区相模大野5-31-1,042-749-2134,Google Maps,35.530297,139.430195,
14201,横須賀市,よこすかし,横須賀市役所,238-8550,横須賀市小川町11,046-822-4000,数値地図,35.281479,139.672117,
14203,平塚市,ひらつかし,平塚市役所,254-8686,平塚市浅間町9-1,0463-23-1111,数値地図,35.335607,139.349559,
14204,鎌倉市,かまくらし,鎌倉市役所,248-8686,鎌倉市御成町18-10,0467-23-3000,数値地図,35.319225,139.546795,
14205,藤沢市,ふじさわし,藤沢市役所,251-8601,藤沢市朝日町1-1,0466-25-1111,数値地図,35.339139,139.491383,
14206,小田原市,おだわらし,小田原市役所,250-8555,小田原市荻窪300,0465-33-1300,数値地図,35.264669,139.152275,
14207,茅ヶ崎市,ちがさきし,茅ヶ崎市役所,253-8686,茅ヶ崎市茅ヶ崎1-1-1,0467-82-1111,数値地図,35.333831,139.404637,
14208,逗子市,ずしし,逗子市役所,249-8686,逗子市逗子5-2-16,046-873-1111,数値地図,35.295589,139.580236,
14210,三浦市,みうらし,三浦市役所,238-0298,三浦市城山町1-1,046-882-1111,数値地図,35.144159,139.620623,
14211,秦野市,はだのし,秦野市役所,257-8501,秦野市桜町1-3-2,0463-82-5111,数値地図,35.374766,139.220154,
14212,厚木市,あつぎし,厚木市役所,243-8511,厚木市中町3-17-17,046-223-1511,数値地図,35.443095,139.36253,
14213,大和市,やまとし,大和市役所,242-8601,大和市下鶴間1-1-1,046-263-1111,数値地図,35.487478,139.458022,
14214,伊勢原市,いせはらし,伊勢原市役所,259-1188,伊勢原市田中348,0463-94-4711,数値地図,35.402876,139.314951,
14215,海老名市,えびなし,海老名市役所,243-0492,海老名市勝瀬175-1,046-231-2111,数値地図,35.446429,139.390751,
14216,座間市,ざまし,座間市役所,252-8566,座間市緑ヶ丘1-1-1,046-255-1111,数値地図,35.488563,139.407609,
14217,南足柄市,みなみあしがらし,南足柄市役所,250-0192,南足柄市関本440,0465-74-2111,数値地図,35.320547,139.099861,
14218,綾瀬市,あやせし,綾瀬市役所,252-1192,綾瀬市早川550,0467-77-1111,数値地図,35.437097,139.426831,
14301,葉山町,はやままち,葉山町役場,240-0192,三浦郡葉山町堀内2135,046-876-1111,数値地図,35.272008,139.586346,
14321,寒川町,さむかわまち,寒川町役場,253-0196,高座郡寒川町宮山165,0467-74-1111,数値地図,35.372964,139.384278,
14341,大磯町,おおいそまち,大磯町役場,255-8555,中郡大磯町東小磯183,0463-61-4100,数値地図,35.306917,139.311286,
14342,二宮町,にのみやまち,二宮町役場,259-0196,中郡二宮町二宮961,0463-71-3311,数値地図,35.299555,139.255347,
14361,中井町,なかいまち,中井町役場,259-0197,足柄上郡中井町比奈窪56,0465-81-1111,数値地図,35.330716,139.218877,
14362,大井町,おおいまち,大井町役場,258-8501,足柄上郡大井町金子1995,0465-83-1311,数値地図,35.326465,139.156049,
14363,松田町,まつだまち,松田町役場,258-8585,足柄上郡松田町松田惣領2037,0465-83-1221,数値地図,35.348323,139.139494,
14364,山北町,やまきたまち,山北町役場,258-0195,足柄上郡山北町山北1301-4,0465-75-1122,数値地図,35.360596,139.083861,
14366,開成町,かいせいまち,開成町役場,258-8502,足柄上郡開成町延沢773,0465-83-2331,数値地図,35.336435,139.123219,
14382,箱根町,はこねまち,箱根町役場,250-0398,足柄下郡箱根町湯本256,0460-85-7111,数値地図,35.232394,139.106837,
14383,真鶴町,まなづるまち,真鶴町役場,259-0202,足柄下郡真鶴町岩244-1,0465-68-1131,数値地図,35.158348,139.137283,
14384,湯河原町,ゆがわらまち,湯河原町役場,259-0392,足柄下郡湯河原町中央2-2-1,0465-63-2111,数値地図,35.147874,139.108342,
14401,愛川町,あいかわまち,愛川町役場,243-0392,愛甲郡愛川町角田251-1,046-285-2111,数値地図,35.528918,139.321561,
14402,清川村,きよかわむら,清川村役場,243-0195,愛甲郡清川村煤ヶ谷2216,046-288-1211,数値地図,35.482644,139.276064,
15000,新潟県,にいがたけん,新潟県庁,950-8570,新潟市中央区新光町4-1,025-285-5511,数値地図,37.902238,139.023531,
15100,新潟市,にいがたし,新潟市役所,951-8550,新潟市中央区学校町通1番町602-1,025-228-1000,数値地図,37.916098,139.036363,
15101,新潟市北区,にいがたしきたく,北区役所,950-3393,新潟市北区葛塚3197,025-387-1000,Google Maps,37.916243,139.218588,
15102,新潟市東区,にいがたしひがしく,東区役所,950-8709,新潟市東区下木戸1-4-1,025-272-1000,Google Maps,37.924871,139.092591,
15103,新潟市中央区,にいがたしちゅうおうく,中央区役所,951-8553,新潟市中央区学校町通1番町602-1,025-223-1000,数値地図,37.916098,139.036363,
15104,新潟市江南区,にいがたしこうなんく,江南区役所,950-0195,新潟市江南区泉町3-4-5,025-383-1000,Google Maps,37.867646,139.093983,
15105,新潟市秋葉区,にいがたしあきはく,秋葉区役所,956-8601,新潟市秋葉区程島2009,0250-23-1000,Google Maps,37.788506,139.114632,
15106,新潟市南区,にいがたしみなみく,南区役所,950-1292,新潟市南区白根1235,025-373-1000,Google Maps,37.765785,139.019127,
15107,新潟市西区,にいがたしにしく,西区役所,950-2097,新潟市西区寺尾東3-14-41,025-268-1000,Google Maps,37.874204,138.972006,
15108,新潟市西蒲区,にいがたしにしかんく,西蒲区役所,953-8666,新潟市西蒲区巻甲2690-1,0256-73-1000,Google Maps,37.760464,138.889284,
15202,長岡市,ながおかし,長岡市役所,940-8501,長岡市大手通1-4-10,0258-35-1122,Google Maps,37.446452,138.851105,
15204,三条市,さんじょうし,三条市役所,955-8686,三条市旭町2-3-1,0256-34-5511,数値地図,37.636351,138.961577,
15205,柏崎市,かしわざきし,柏崎市役所,945-8511,柏崎市中央町5-50,0257-23-5111,数値地図,37.37193,138.558738,
15206,新発田市,しばたし,新発田市役所,957-8686,新発田市中央町3-3-3,0254-22-3030,Google Maps,37.947924,139.327149,新庁舎
15208,小千谷市,おぢやし,小千谷市役所,947-8501,小千谷市城内2-7-5,0258-83-3511,数値地図,37.315274,138.794996,
15209,加茂市,かもし,加茂市役所,959-1392,加茂市幸町2-3-5,0256-52-0080,数値地図,37.666321,139.040179,
15210,十日町市,とおかまちし,十日町市役所,948-8501,十日町市千歳町3-3,025-757-3111,数値地図,37.12749,138.75559,
15211,見附市,みつけし,見附市役所,954-8686,見附市昭和町2-1-1,0258-62-1700,数値地図,37.531418,138.912669,
15212,村上市,むらかみし,村上市役所,958-8501,村上市三之町1-1,0254-53-2111,数値地図,38.224045,139.479992,
15213,燕市,つばめし,燕市役所,959-0295,燕市吉田西太田1934,0256-92-1111,数値地図画像,37.673249,138.881898,吉田庁舎
15216,糸魚川市,いといがわし,糸魚川市役所,941-8501,糸魚川市一の宮1-2-5,025-552-1511,数値地図,37.038977,137.862707,
15217,妙高市,みょうこうし,妙高市役所,944-8686,妙高市栄町5-1,0255-72-5111,数値地図,37.026018,138.254197,
15218,五泉市,ごせんし,五泉市役所,959-1692,五泉市太田1094-1,0250-43-3911,数値地図,37.744566,139.182467,
15222,上越市,じょうえつし,上越市役所,943-8601,上越市木田1丁目1-3,025-526-5111,数値地図,37.147919,138.236138,
15223,阿賀野市,あがのし,阿賀野市役所,959-2092,阿賀野市岡山町10-15,0250-62-2510,数値地図,37.834361,139.225877,
15224,佐渡市,さどし,佐渡市役所,952-1292,佐渡市千種232,0259-63-3111,数値地図,38.018177,138.368259,
15225,魚沼市,うおぬまし,魚沼市役所,946-8601,魚沼市小出島130-1,025-792-1000,数値地図,37.23012,138.961511,
15226,南魚沼市,みなみうおぬまし,南魚沼市役所,949-6696,南魚沼市六日町180-1,025-773-6660,数値地図,37.065527,138.876025,
15227,胎内市,たいないし,胎内市役所,959-2693,胎内市新和町2-10,0254-43-6111,数値地図,38.05973,139.410344,
15307,聖籠町,せいろうまち,聖籠町役場,957-0192,北蒲原郡聖籠町大字諏訪山1635-4,0254-27-2111,数値地図,37.974513,139.274477,
15342,弥彦村,やひこむら,弥彦村役場,959-0392,西蒲原郡弥彦村大字矢作402,0256-94-3131,数値地図,37.691034,138.855143,
15361,田上町,たがみまち,田上町役場,959-1503,南蒲原郡田上町原ヶ崎新田3070,0256-57-6222,数値地図画像,37.698688,139.057892,
15385,阿賀町,あがまち,阿賀町役場,959-4495,東蒲原郡阿賀町津川580,0254-92-3111,数値地図,37.675635,139.458696,
15405,出雲崎町,いずもざきまち,出雲崎町役場,949-4392,三島郡出雲崎町大字川西140,0258-78-3111,数値地図,37.530717,138.709385,
15461,湯沢町,ゆざわまち,湯沢町役場,949-6192,南魚沼郡湯沢町大字神立300,025-784-3451,数値地図,36.933985,138.817451,
15482,津南町,つなんまち,津南町役場,949-8292,中魚沼郡津南町大字下船渡戊585,025-765-3111,数値地図,37.014252,138.652575,
15504,刈羽村,かりわむら,刈羽村役場,945-0397,刈羽郡刈羽村大字割町新田215-1,0257-45-2244,数値地図,37.422119,138.622508,
15581,関川村,せきかわむら,関川村役場,959-3292,岩船郡関川村大字下関912,0254-64-1441,数値地図,38.089397,139.564995,
15586,粟島浦村,あわしまうらむら,粟島浦村役場,958-0061,岩船郡粟島浦村字日ノ見山1513-11,0254-55-2111,数値地図画像,38.468237,139.254435,
16000,富山県,とやまけん,富山県庁,930-8501,富山市新総曲輪1-7,076-431-4111,数値地図,36.69519,137.211341,
16201,富山市,とやまし,富山市役所,930-8510,富山市新桜町7-38,076-431-6111,数値地図,36.695801,137.213618,
16202,高岡市,たかおかし,高岡市役所,933-8601,高岡市広小路7-50,0766-20-1111,数値地図,36.754151,137.025997,
16204,魚津市,うおづし,魚津市役所,937-8555,魚津市釈迦堂1-10-1,0765-23-1019,数値地図,36.827376,137.409012,
16205,氷見市,ひみし,氷見市役所,935-8686,氷見市鞍川1060番地,0766-74-8100,Google Maps,36.855974,136.972874,
16206,滑川市,なめりかわし,滑川市役所,936-8601,滑川市寺家町104,076-475-2111,数値地図,36.764436,137.341216,
16207,黒部市,くろべし,黒部市役所,938-8555,黒部市三日市1301,0765-54-2111,Google Maps,36.871446,137.44806,新庁舎
16208,砺波市,となみし,砺波市役所,939-1398,砺波市栄町7-3,0763-33-1111,数値地図,36.647497,136.962091,
16209,小矢部市,おやべし,小矢部市役所,932-8611,小矢部市本町1-1,0766-67-1760,数値地図,36.675436,136.868655,
16210,南砺市,なんとし,南砺市役所,939-1596,南砺市苗島4880,0763-23-2003,数値地図,36.587893,136.919292,
16211,射水市,いみずし,射水市役所,939-0294,射水市新開発410-1,0766-51-6600,Google Maps,36.730463,137.075475,新庁舎
16321,舟橋村,ふなはしむら,舟橋村役場,930-0295,中新川郡舟橋村仏生寺55,076-464-1121,数値地図,36.703553,137.307387,
16322,上市町,かみいちまち,上市町役場,930-0393,中新川郡上市町法音寺1,076-472-1111,数値地図,36.698389,137.362577,
16323,立山町,たてやままち,立山町役場,930-0292,中新川郡立山町前沢2440,076-463-1121,数値地図,36.663335,137.313638,
16342,入善町,にゅうぜんまち,入善町役場,939-0693,下新川郡入善町入膳3255,0765-72-1100,数値地図,36.933557,137.502191,
16343,朝日町,あさひまち,朝日町役場,939-0793,下新川郡朝日町道下1133,0765-83-1100,数値地図,36.946309,137.559958,
17000,石川県,いしかわけん,石川県庁,920-8580,金沢市鞍月1-1,076-225-1111,数値地図画像,36.594652,136.625725,
17201,金沢市,かなざわし,金沢市役所,920-8577,金沢市広坂1-1-1,076-220-2111,数値地図,36.560944,136.656763,
17202,七尾市,ななおし,七尾市役所,926-8611,七尾市袖ヶ江町イ部25,0767-53-1111,数値地図,37.04314,136.967326,
17203,小松市,こまつし,小松市役所,923-8650,小松市小馬出町91,0761-22-4111,数値地図,36.408595,136.445646,
17204,輪島市,わじまし,輪島市役所,928-8525,輪島市二ツ屋町2字29,0768-22-2211,数値地図,37.390542,136.899148,
17205,珠洲市,すずし,珠洲市役所,927-1295,珠洲市上戸町北方1の6の2,0768-82-2222,数値地図,37.436408,137.260336,
17206,加賀市,かがし,加賀市役所,922-8622,加賀市大聖寺南町ニ41,0761-72-1111,数値地図,36.302802,136.314941,
17207,羽咋市,はくいし,羽咋市役所,925-8501,羽咋市旭町ア200,0767-22-1111,数値地図,36.893682,136.77899,
17209,かほく市,かほくし,かほく市役所,929-1195,かほく市宇野気ニ81,076-283-1111,数値地図,36.719954,136.706615,
17210,白山市,はくさんし,白山市役所,924-8688,白山市倉光2-1,076-276-1111,数値地図,36.514421,136.565522,
17211,能美市,のみし,能美市役所,923-1297,能美市来丸町1110,0761-58-5111,数値地図画像,36.446902,136.554183,
17212,野々市市,ののいちし,野々市市役所,921-8510,野々市市三納1-1,076-227-6000,数値地図画像,36.5199,136.609399,
17324,川北町,かわきたまち,川北町役場,923-1295,能美郡川北町壱ツ屋174,076-277-1111,数値地図,36.468843,136.54197,
17361,津幡町,つばたまち,津幡町役場,929-0393,河北郡津幡町加賀爪ニ3,076-288-2121,数値地図,36.66871,136.728336,
17365,内灘町,うちなだまち,内灘町役場,920-0292,河北郡内灘町字大学1-2-1,076-286-1111,数値地図,36.65346,136.645039,
17384,志賀町,しかまち,志賀町役場,925-0198,羽咋郡志賀町末吉千古1-1,0767-32-1111,数値地図,37.006278,136.778068,
17386,宝達志水町,ほうだつしみずちょう,宝達志水町役場,929-1492,羽咋郡宝達志水町子浦そ18-1,0767-29-3111,数値地図,36.862742,136.797629,
17407,中能登町,なかのとまち,中能登町役場,929-1792,鹿島郡中能登町末坂9部46番地,0767-74-1234,数値地図,36.988894,136.901529,
17461,穴水町,あなみずまち,穴水町役場,927-8601,鳳珠郡穴水町字川島ラ174,0768-52-0300,数値地図,37.231005,136.912432,
17463,能登町,のとちょう,能登町役場,927-0492,鳳珠郡能登町字宇出津新1-197-1,0768-62-1000,数値地図,37.306532,137.150074,
18000,福井県,ふくいけん,福井県庁,910-8580,福井市大手3-17-1,0776-21-1111,数値地図,36.065244,136.221791,
18201,福井市,ふくいし,福井市役所,910-8511,福井市大手3-10-1,0776-20-5111,数値地図,36.064189,136.219374,
18202,敦賀市,つるがし,敦賀市役所,914-8501,敦賀市中央町2-1-1,0770-21-1111,数値地図,35.645325,136.055546,
18204,小浜市,おばまし,小浜市役所,917-8585,小浜市大手町6-3,0770-53-1111,数値地図,35.495587,135.746658,
18205,大野市,おおのし,大野市役所,912-8666,大野市天神町1-1,0779-66-1111,数値地図,35.98051,136.487599,
18206,勝山市,かつやまし,勝山市役所,911-8501,勝山市元町1-1-1,0779-88-1111,数値地図,36.060864,136.500653,
18207,鯖江市,さばえし,鯖江市役所,916-8666,鯖江市西山町13-1,0778-51-2200,数値地図,35.956591,136.184493,
18208,あわら市,あわらし,あわら市役所,919-0692,あわら市市姫3-1-1,0776-73-1221,数値地図画像,36.211465,136.229074,
18209,越前市,えちぜんし,越前市役所,915-8530,越前市府中1-13-7,0778-22-3000,数値地図,35.903404,136.169024,
18210,坂井市,さかいし,坂井市役所,919-0592,坂井市坂井町下新庄1-1,0776-66-1500,数値地図,36.166816,136.231704,
18322,永平寺町,えいへいじちょう,永平寺町役場,910-1192,吉田郡永平寺町松岡春日1-4,0776-61-1111,数値地図画像,36.092248,136.298785,
18382,池田町,いけだちょう,池田町役場,910-2512,今立郡池田町稲荷35-4,0778-44-6000,数値地図,35.890325,136.344173,
18404,南越前町,みなみえちぜんちょう,南越前町役場,919-0292,南条郡南越前町東大道29-1,0778-47-3000,数値地図,35.83508,136.194496,
18423,越前町,えちぜんちょう,越前町役場,916-0192,丹生郡越前町西田中13-5-1,0778-34-1234,数値地図画像,35.974166,136.129775,
18442,美浜町,みはまちょう,美浜町役場,919-1192,三方郡美浜町郷市25-25,0770-32-1111,数値地図,35.600607,135.940615,
18481,高浜町,たかはまちょう,高浜町役場,919-2292,大飯郡高浜町宮崎86-23-2,0770-72-1111,Google Maps,35.487904,135.545969,
18483,おおい町,おおいちょう,おおい町役場,919-2111,大飯郡おおい町本郷136-1-1,0770-77-1111,数値地図,35.481143,135.617862,
18501,若狭町,わかさちょう,若狭町役場,919-1393,三方上中郡若狭町中央1-1,0770-45-1111,数値地図,35.548946,135.908201,
19000,山梨県,やまなしけん,山梨県庁,400-8501,甲府市丸の内1-6-1,055-237-1111,数値地図,35.663935,138.568379,
19201,甲府市,こうふし,甲府市役所,400-8585,甲府市丸の内1-18-1,055-237-1161,Google Maps,35.662025,138.56825,
19202,富士吉田市,ふじよしだし,富士吉田市役所,403-8601,富士吉田市下吉田6-1-1,0555-22-1111,数値地図,35.487407,138.808029,
19204,都留市,つるし,都留市役所,402-8501,都留市上谷1-1-1,0554-43-1111,数値地図,35.550791,138.905767,
19205,山梨市,やまなしし,山梨市役所,405-8501,山梨市小原西843,0553-22-1111,Google Maps,35.693341,138.687344,
19206,大月市,おおつきし,大月市役所,401-8601,大月市大月2-6-20,0554-23-8005,数値地図,35.610562,138.940011,
19207,韮崎市,にらさきし,韮崎市役所,407-8501,韮崎市水神1-3-1,0551-22-1111,数値地図,35.708816,138.446307,
19208,南アルプス市,みなみあるぷすし,南アルプス市役所,400-0395,南アルプス市小笠原376,055-282-1111,数値地図,35.608358,138.465057,
19209,北杜市,ほくとし,北杜市役所,408-0188,北杜市須玉町大豆生田961-1,0551-42-1111,数値地図画像,35.77607,138.4235,
19210,甲斐市,かいし,甲斐市役所,400-0192,甲斐市篠原2610,055-276-2111,数値地図,35.660712,138.515829,
19211,笛吹市,ふえふきし,笛吹市役所,406-8510,笛吹市石和町市部777,055-262-4111,数値地図,35.647187,138.639847,
19212,上野原市,うえのはらし,上野原市役所,409-0192,上野原市上野原3832,0554-62-3111,数値地図,35.631286,139.109437,
19213,甲州市,こうしゅうし,甲州市役所,404-8501,甲州市塩山上於曽1085番地1,0553-32-2111,Google Maps,35.704286,138.729424,
19214,中央市,ちゅうおうし,中央市役所,409-3892,中央市臼井阿原301-1,055-274-1111,数値地図,35.599637,138.517275,
19346,市川三郷町,いちかわみさとちょう,市川三郷町役場,409-3601,西八代郡市川三郷町市川大門1790-3,055-272-1101,数値地図画像,35.565377,138.502211,
19364,早川町,はやかわちょう,早川町役場,409-2732,南巨摩郡早川町高住758,0556-45-2511,数値地図,35.41263,138.363155,
19365,身延町,みのぶちょう,身延町役場,409-3392,南巨摩郡身延町切石350,0556-42-2111,数値地図画像,35.467819,138.44255,
19366,南部町,なんぶちょう,南部町役場,409-2192,南巨摩郡南部町福士28505-2,0556-66-2111,数値地図画像,35.242282,138.486692,
19368,富士川町,ふじかわちょう,富士川町役場,400-0592,南巨摩郡富士川町天神中条1134,0556-22-1111,数値地図,35.561197,138.461308,
19384,昭和町,しょうわちょう,昭和町役場,409-3880,中巨摩郡昭和町押越542-2,055-275-2111,数値地図,35.627967,138.535106,
19422,道志村,どうしむら,道志村役場,402-0209,南都留郡道志村6181-1,0554-52-2111,数値地図画像,35.528129,139.033484,
19423,西桂町,にしかつらちょう,西桂町役場,403-0022,南都留郡西桂町小沼1501-1,0555-25-2121,数値地図,35.524154,138.846969,
19424,忍野村,おしのむら,忍野村役場,401-0592,南都留郡忍野村忍草1514,0555-84-3111,数値地図,35.460106,138.847775,
19425,山中湖村,やまなかこむら,山中湖村役場,401-0595,南都留郡山中湖村山中237-1,0555-62-1111,数値地図,35.410641,138.860941,
19429,鳴沢村,なるさわむら,鳴沢村役場,401-0398,南都留郡鳴沢村1575,0555-85-2311,数値地図,35.481378,138.706623,
19430,富士河口湖町,ふじかわぐちこまち,富士河口湖町役場,401-0392,南都留郡富士河口湖町船津1700,0555-72-1111,数値地図,35.501127,138.76506,
19442,小菅村,こすげむら,小菅村役場,409-0211,北都留郡小菅村4698,0428-87-0111,数値地図,35.760293,138.940286,
19443,丹波山村,たばやまむら,丹波山村役場,409-0305,北都留郡丹波山村890,0428-88-0211,数値地図,35.789735,138.922259,
20000,長野県,ながのけん,長野県庁,380-8570,長野市大字南長野字幅下692-2,026-232-0111,数値地図,36.65131,138.180991,
20201,長野市,ながのし,長野市役所,380-8512,長野市大字鶴賀緑町1613,026-226-4911,数値地図,36.648533,138.194295,
20202,松本市,まつもとし,松本市役所,390-8620,松本市丸の内3-7,0263-34-3000,数値地図,36.237907,137.971994,
20203,上田市,うえだし,上田市役所,386-8601,上田市大手1-11-16,0268-22-4100,数値地図,36.40195,138.249074,
20204,岡谷市,おかやし,岡谷市役所,394-8510,岡谷市幸町8-1,0266-23-4811,数値地図,36.066931,138.049384,
20205,飯田市,いいだし,飯田市役所,395-8501,飯田市大久保町2534,0265-22-4511,数値地図,35.514717,137.821838,
20206,諏訪市,すわし,諏訪市役所,392-8511,諏訪市高島1-22-30,0266-52-4141,数値地図,36.039158,138.114017,
20207,須坂市,すざかし,須坂市役所,382-8511,須坂市大字須坂1528-1,026-245-1400,数値地図,36.651175,138.306783,
20208,小諸市,こもろし,小諸市役所,384-8501,小諸市相生町3-3-3,0267-22-1700,数値地図,36.326852,138.426036,
20209,伊那市,いなし,伊那市役所,396-8617,伊那市下新田3050,0265-78-4111,数値地図,35.82743,137.953982,
20210,駒ヶ根市,こまがねし,駒ヶ根市役所,399-4192,駒ヶ根市赤須町20-1,0265-83-2111,数値地図,35.72883,137.933932,
20211,中野市,なかのし,中野市役所,383-8614,中野市三好町1-3-19,0269-22-2111,数値地図,36.742027,138.369497,
20212,大町市,おおまちし,大町市役所,398-8601,大町市大町3887,0261-22-0420,数値地図,36.502925,137.850944,
20213,飯山市,いいやまし,飯山市役所,389-2292,飯山市大字飯山1110-1,0269-62-3111,数値地図,36.851652,138.365522,
20214,茅野市,ちのし,茅野市役所,391-8501,茅野市塚原2-6-1,0266-72-2101,数値地図,35.995498,138.158765,
20215,塩尻市,しおじりし,塩尻市役所,399-0786,塩尻市大門7番町3-3,0263-52-0280,数値地図,36.11495,137.953612,
20217,佐久市,さくし,佐久市役所,385-8501,佐久市中込3056,0267-62-2111,数値地図,36.248779,138.477005,
20218,千曲市,ちくまし,千曲市役所,387-8511,千曲市大字杭瀬下84,026-273-1111,数値地図,36.533821,138.119947,
20219,東御市,とうみし,東御市役所,389-0592,東御市県281-2,0268-62-1111,数値地図,36.359401,138.33043,
20220,安曇野市,あづみのし,安曇野市役所,399-8281,安曇野市豊科6000,0263-71-2000,Google Maps,36.303933,137.905755,
20303,小海町,こうみまち,小海町役場,384-1192,南佐久郡小海町大字豊里57-1,0267-92-2525,数値地図画像,36.095041,138.483639,
20304,川上村,かわかみむら,川上村役場,384-1405,南佐久郡川上村大字大深山525,0267-97-2121,数値地図,35.975423,138.578285,
20305,南牧村,みなみまきむら,南牧村役場,384-1302,南佐久郡南牧村大字海ノ口1051,0267-96-2211,数値地図,36.020888,138.492151,
20306,南相木村,みなみあいきむら,南相木村役場,384-1211,南佐久郡南相木村3525-1,0267-78-2121,数値地図画像,36.036101,138.546911,
20307,北相木村,きたあいきむら,北相木村役場,384-1201,南佐久郡北相木村2744,0267-77-2111,数値地図,36.059191,138.5512,
20309,佐久穂町,さくほまち,佐久穂町役場,384-0697,南佐久郡佐久穂町大字高野町569,0267-86-2525,数値地図,36.160984,138.483396,
20321,軽井沢町,かるいざわまち,軽井沢町役場,389-0192,北佐久郡軽井沢町大字長倉2381-1,0267-45-8111,数値地図,36.348382,138.597046,
20323,御代田町,みよたまち,御代田町役場,389-0292,北佐久郡御代田町大字御代田2464-2,0267-32-3111,数値地図,36.321244,138.508778,
20324,立科町,たてしなまち,立科町役場,384-2305,北佐久郡立科町大字芦田2532,0267-56-2311,数値地図,36.27205,138.316019,
20349,青木村,あおきむら,青木村役場,386-1601,小県郡青木村大字田沢111,0268-49-0111,数値地図,36.369979,138.128614,
20350,長和町,ながわまち,長和町役場,386-0602,小県郡長和町長久保525-1,0268-68-3111,数値地図,36.256745,138.268635,
20361,下諏訪町,しもすわまち,下諏訪町役場,393-8501,諏訪郡下諏訪町4613-8,0266-27-1111,数値地図画像,36.069446,138.080155,
20362,富士見町,ふじみまち,富士見町役場,399-0292,諏訪郡富士見町落合10777,0266-62-2250,数値地図,35.914593,138.240762,
20363,原村,はらむら,原村役場,391-0192,諏訪郡原村6549-1,0266-79-2111,数値地図画像,35.96435,138.217418,
20382,辰野町,たつのまち,辰野町役場,399-0493,上伊那郡辰野町中央1,0266-41-1111,数値地図,35.982412,137.987586,
20383,箕輪町,みのわまち,箕輪町役場,399-4695,上伊那郡箕輪町大字中箕輪10298,0265-79-3111,数値地図,35.915003,137.98195,
20384,飯島町,いいじままち,飯島町役場,399-3797,上伊那郡飯島町飯島2537,0265-86-3111,数値地図,35.676614,137.920352,
20385,南箕輪村,みなみみのわむら,南箕輪村役場,399-4592,上伊那郡南箕輪村4825-1,0265-72-2104,数値地図画像,35.872903,137.97502,
20386,中川村,なかがわむら,中川村役場,399-3892,上伊那郡中川村大草4045-1,0265-88-3001,数値地図,35.634536,137.945963,
20388,宮田村,みやだむら,宮田村役場,399-4392,上伊那郡宮田村98,0265-85-3181,数値地図,35.76891,137.94429,
20402,松川町,まつかわまち,松川町役場,399-3303,下伊那郡松川町元大島3823,0265-36-3111,数値地図,35.597236,137.909716,
20403,高森町,たかもりまち,高森町役場,399-3193,下伊那郡高森町下市田2183-1,0265-35-3111,数値地図,35.551491,137.87847,
20404,阿南町,あなんちょう,阿南町役場,399-1511,下伊那郡阿南町東條58-1,0260-22-2141,数値地図,35.323629,137.81618,
20407,阿智村,あちむら,阿智村役場,395-0303,下伊那郡阿智村駒場483,0265-43-2220,数値地図,35.443835,137.747404,
20409,平谷村,ひらやむら,平谷村役場,395-0601,下伊那郡平谷村354,0265-48-2211,数値地図画像,35.323352,137.630186,
20410,根羽村,ねばむら,根羽村役場,395-0701,下伊那郡根羽村1762,0265-49-2111,数値地図,35.253102,137.581202,
20411,下條村,しもじょうむら,下條村役場,399-2101,下伊那郡下條村睦沢8801-1,0260-27-2311,数値地図,35.397341,137.785959,
20412,売木村,うるぎむら,売木村役場,399-1689,下伊那郡売木村968-1,0260-28-2311,数値地図,35.27116,137.711107,
20413,天龍村,てんりゅうむら,天龍村役場,399-1201,下伊那郡天龍村平岡878,0260-32-2001,数値地図,35.276357,137.854289,
20414,泰阜村,やすおかむら,泰阜村役場,399-1895,下伊那郡泰阜村3236-1,0260-26-2111,数値地図画像,35.377306,137.845837,
20415,喬木村,たかぎむら,喬木村役場,395-1107,下伊那郡喬木村6664,0265-33-2001,数値地図,35.513829,137.87386,
20416,豊丘村,とよおかむら,豊丘村役場,399-3295,下伊那郡豊丘村大字神稲3120,0265-35-3311,数値地図,35.551436,137.895774,
20417,大鹿村,おおしかむら,大鹿村役場,399-3502,下伊那郡大鹿村大字大河原354,0265-39-2001,数値地図,35.578047,138.034597,
20422,上松町,あげまつまち,上松町役場,399-5603,木曽郡上松町駅前通り2-13,0264-52-2001,数値地図,35.784012,137.694146,
20423,南木曽町,なぎそまち,南木曽町役場,399-5301,木曽郡南木曽町大字読書3668-1,0264-57-2001,数値地図,35.603644,137.608913,
20425,木祖村,きそむら,木祖村役場,399-6201,木曽郡木祖村薮原1191-1,0264-36-2001,数値地図,35.936356,137.783159,
20429,王滝村,おうたきむら,王滝村役場,397-0201,木曽郡王滝村3623,0264-48-2001,数値地図,35.809339,137.551133,
20430,大桑村,おおくわむら,大桑村役場,399-5503,木曽郡大桑村大字長野2778,0264-55-3080,数値地図,35.682858,137.664959,
20432,木曽町,きそまち,木曽町役場,397-8588,木曽郡木曽町福島2326-6,0264-22-3000,数値地図画像,35.842061,137.691334,
20446,麻績村,おみむら,麻績村役場,399-7701,東筑摩郡麻績村麻3837,0263-67-3001,数値地図,36.456161,138.045175,
20448,生坂村,いくさかむら,生坂村役場,399-7201,東筑摩郡生坂村5493-2,0263-69-3111,数値地図画像,36.425242,137.927571,
20450,山形村,やまがたむら,山形村役場,390-1392,東筑摩郡山形村2030-1,0263-98-3111,数値地図画像,36.168057,137.878935,
20451,朝日村,あさひむら,朝日村役場,390-1188,東筑摩郡朝日村大字小野沢296-5,0263-99-2001,数値地図,36.123586,137.86623,
20452,筑北村,ちくほくむら,筑北村役場,399-7501,東筑摩郡筑北村西条4195,0263-66-2111,Google Maps,36.402762,138.011764,
20481,池田町,いけだまち,池田町役場,399-8696,北安曇郡池田町大字池田3203-6,0261-62-3131,数値地図,36.421271,137.874638,
20482,松川村,まつかわむら,松川村役場,399-8501,北安曇郡松川村76-5,0261-62-3111,数値地図画像,36.424113,137.85455,
20485,白馬村,はくばむら,白馬村役場,399-9393,北安曇郡白馬村大字北城7025,0261-72-5000,数値地図,36.698266,137.862105,
20486,小谷村,おたりむら,小谷村役場,399-9494,北安曇郡小谷村大字中小谷丙131,0261-82-2001,数値地図,36.779064,137.908322,
20521,坂城町,さかきまち,坂城町役場,389-0692,埴科郡坂城町大字坂城10050,0268-82-3111,数値地図,36.461831,138.180134,
20541,小布施町,おぶせまち,小布施町役場,381-0297,上高井郡小布施町大字小布施1491-2,026-247-3111,数値地図,36.697725,138.312171,
20543,高山村,たかやまむら,高山村役場,382-8510,上高井郡高山村大字高井4972,026-245-1100,数値地図,36.679784,138.363166,
20561,山ノ内町,やまのうちまち,山ノ内町役場,381-0498,下高井郡山ノ内町大字平穏3352-1,0269-33-3111,数値地図,36.744611,138.412604,
20562,木島平村,きじまだいらむら,木島平村役場,389-2392,下高井郡木島平村大字往郷973-1,0269-82-3111,数値地図,36.858486,138.406712,
20563,野沢温泉村,のざわおんせんむら,野沢温泉村役場,389-2592,下高井郡野沢温泉村大字豊郷9817,0269-85-3111,数値地図,36.922812,138.440568,
20583,信濃町,しなのまち,信濃町役場,389-1392,上水内郡信濃町大字柏原428-2,026-255-3111,数値地図,36.80632,138.207041,
20588,小川村,おがわむら,小川村役場,381-3302,上水内郡小川村大字高府8800-8,026-269-2323,数値地図,36.617001,137.974541,
20590,飯綱町,いいづなまち,飯綱町役場,389-1293,上水内郡飯綱町大字牟礼2795-1,026-253-2511,数値地図,36.754938,138.235622,
20602,栄村,さかえむら,栄村役場,389-2792,下水内郡栄村大字北信3433,0269-87-3111,数値地図,36.987503,138.577416,
21000,岐阜県,ぎふけん,岐阜県庁,500-8570,岐阜市藪田南2-1-1,058-272-1111,数値地図,35.391199,136.722168,
21201,岐阜市,ぎふし,岐阜市役所,500-8701,岐阜市今沢町18,058-265-4141,数値地図,35.423362,136.760801,
21202,大垣市,おおがきし,大垣市役所,503-8601,大垣市丸の内2-29,0584-81-4111,数値地図,35.359367,136.612847,
21203,高山市,たかやまし,高山市役所,506-8555,高山市花岡町2-18,0577-32-3333,数値地図,36.145926,137.252289,
21204,多治見市,たじみし,多治見市役所,507-8703,多治見市日ノ出町2-15,0572-22-1111,数値地図,35.332744,137.132074,
21205,関市,せきし,関市役所,501-3894,関市若草通3-1,0575-22-3131,数値地図,35.495774,136.917895,
21206,中津川市,なかつがわし,中津川市役所,508-8501,中津川市かやの木町2-1,0573-66-1111,数値地図,35.487545,137.50062,
21207,美濃市,みのし,美濃市役所,501-3792,美濃市1350,0575-33-1122,数値地図,35.544739,136.907451,
21208,瑞浪市,みずなみし,瑞浪市役所,509-6195,瑞浪市上平町1-1,0572-68-2111,数値地図,35.361801,137.254478,
21209,羽島市,はしまし,羽島市役所,501-6292,羽島市竹鼻町55,058-392-1111,数値地図,35.319956,136.703311,
21210,恵那市,えなし,恵那市役所,509-7292,恵那市長島町正家1-1-1,0573-26-2111,数値地図画像,35.449264,137.412858,
21211,美濃加茂市,みのかもし,美濃加茂市役所,505-8606,美濃加茂市太田町3431-1,0574-25-2111,数値地図,35.440701,137.016386,
21212,土岐市,ときし,土岐市役所,509-5192,土岐市土岐津町土岐口2101,0572-54-1111,数値地図,35.352494,137.183291,
21213,各務原市,かかみがはらし,各務原市役所,504-8555,各務原市那加桜町1-69,058-383-1111,数値地図,35.39881,136.848542,
21214,可児市,かにし,可児市役所,509-0292,可児市広見1-1,0574-62-1111,数値地図,35.425953,137.061022,
21215,山県市,やまがたし,山県市役所,501-2192,山県市高木1000-1,0581-22-2111,数値地図,35.506045,136.781296,
21216,瑞穂市,みずほし,瑞穂市役所,501-0293,瑞穂市別府1288,058-327-4111,数値地図,35.391837,136.690895,
21217,飛騨市,ひだし,飛騨市役所,509-4292,飛騨市古川町本町2-22,0577-73-2111,数値地図,36.238191,137.186128,
21218,本巣市,もとすし,本巣市役所,501-1292,本巣市文殊324,0581-34-2511,数値地図画像,35.483046,136.678798,
21219,郡上市,ぐじょうし,郡上市役所,501-4297,郡上市八幡町島谷228,0575-67-1121,数値地図,35.748608,136.964382,
21220,下呂市,げろし,下呂市役所,509-2295,下呂市森960,0576-24-2222,数値地図,35.805887,137.244186,下呂庁舎
21221,海津市,かいづし,海津市役所,503-0695,海津市海津町高須515,0584-53-1111,数値地図,35.220578,136.63657,
21302,岐南町,ぎなんちょう,岐南町役場,501-6197,羽島郡岐南町八剣7-107,058-247-1331,数値地図,35.389616,136.782771,
21303,笠松町,かさまつちょう,笠松町役場,501-6181,羽島郡笠松町司町1,058-388-1111,数値地図,35.367201,136.763247,
21341,養老町,ようろうちょう,養老町役場,503-1392,養老郡養老町高田798,0584-32-1100,数値地図,35.308288,136.561438,
21361,垂井町,たるいちょう,垂井町役場,503-2193,不破郡垂井町1532-1,0584-22-1151,数値地図,35.370225,136.527024,
21362,関ケ原町,せきがはらちょう,関ケ原町役場,503-1592,不破郡関ケ原町大字関ケ原894-58,0584-43-1111,数値地図,35.361531,136.469587,
21381,神戸町,ごうどちょう,神戸町役場,503-2392,安八郡神戸町大字神戸1111,0584-27-3111,数値地図,35.417471,136.608625,
21382,輪之内町,わのうちちょう,輪之内町役場,503-0292,安八郡輪之内町四郷2530-1,0584-69-3111,数値地図,35.285043,136.637457,
21383,安八町,あんぱちちょう,安八町役場,503-0198,安八郡安八町氷取161,0584-64-3111,数値地図,35.335398,136.665425,
21401,揖斐川町,いびがわちょう,揖斐川町役場,501-0692,揖斐郡揖斐川町三輪133,0585-22-2111,数値地図,35.486905,136.568044,
21403,大野町,おおのちょう,大野町役場,501-0592,揖斐郡大野町大字大野80,0585-34-1111,数値地図,35.470658,136.627621,
21404,池田町,いけだちょう,池田町役場,503-2492,揖斐郡池田町六之井1468-1,0585-45-3111,数値地図,35.442245,136.573017,
21421,北方町,きたがたちょう,北方町役場,501-0492,本巣郡北方町長谷川1-1,058-323-1111,Google Maps,35.435676,136.6844,新庁舎
21501,坂祝町,さかほぎちょう,坂祝町役場,505-8501,加茂郡坂祝町取組46-18,0574-26-7111,数値地図,35.426728,136.985333,
21502,富加町,とみかちょう,富加町役場,501-3392,加茂郡富加町滝田1511,0574-54-2111,数値地図,35.484777,136.979612,
21503,川辺町,かわべちょう,川辺町役場,509-0393,加茂郡川辺町中川辺1518-4,0574-53-2511,数値地図,35.486531,137.070574,
21504,七宗町,ひちそうちょう,七宗町役場,509-0492,加茂郡七宗町上麻生2442-3,0574-48-1111,数値地図,35.543748,137.119902,
21505,八百津町,やおつちょう,八百津町役場,505-0392,加茂郡八百津町八百津3903-2,0574-43-2111,数値地図,35.476007,137.141652,
21506,白川町,しらかわちょう,白川町役場,509-1192,加茂郡白川町河岐715,0574-72-1311,数値地図,35.582106,137.188365,
21507,東白川村,ひがししらかわむら,東白川村役場,509-1392,加茂郡東白川村神土548,0574-78-3111,数値地図,35.642519,137.323795,
21521,御嵩町,みたけちょう,御嵩町役場,505-0192,可児郡御嵩町御嵩1239-1,0574-67-2111,数値地図,35.4344,137.130709,
21604,白川村,しらかわむら,白川村役場,501-5692,大野郡白川村鳩谷517,05769-6-1311,数値地図,36.27093,136.89855,
22000,静岡県,しずおかけん,静岡県庁,420-8601,静岡市葵区追手町9-6,054-221-2455,数値地図,34.976906,138.383023,
22100,静岡市,しずおかし,静岡市役所,420-8602,静岡市葵区追手町5-1,054-254-2111,数値地図,34.975045,138.383717,
22101,静岡市葵区,しずおかしあおいく,葵区役所,420-8602,静岡市葵区追手町5-1,054-254-2115,数値地図,34.975045,138.383717,
22102,静岡市駿河区,しずおかしするがく,駿河区役所,422-8550,静岡市駿河区南八幡町10-40,054-202-5811,数値地図画像,34.960849,138.404283,
22103,静岡市清水区,しずおかししみずく,清水区役所,424-8701,静岡市清水区旭町6-8,054-354-2111,数値地図,35.015654,138.48968,
22130,浜松市,はままつし,浜松市役所,430-8652,浜松市中区元城町103-2,053-457-2111,数値地図,34.710837,137.726759,
22131,浜松市中区,はままつしなかく,中区役所,430-8652,浜松市中区元城町103-2,053-457-2111,数値地図,34.710837,137.726759,
22132,浜松市東区,はままつしひがしく,東区役所,435-8686,浜松市東区流通元町20-3,053-424-0111,Google Maps,34.741325,137.791772,
22133,浜松市西区,はままつしにしく,西区役所,431-0193,浜松市西区雄踏1-31-1,053-597-1111,Google Maps,34.69271,137.645317,
22134,浜松市南区,はままつしみなみく,南区役所,430-0898,浜松市南区江之島町600-1,053-425-1111,Google Maps,34.667333,137.7523,
22135,浜松市北区,はままつしきたく,北区役所,431-1395,浜松市北区細江町気賀305,053-523-1111,Google Maps,34.806193,137.651023,
22136,浜松市浜北区,はままつしはまきたく,浜北区役所,434-8550,浜松市浜北区貴布祢3000,053-587-3111,Google Maps,34.791628,137.783281,移転
22137,浜松市天竜区,はままつしてんりゅうく,天竜区役所,431-3392,浜松市天竜区二俣町二俣481,053-926-1111,Google Maps,34.872643,137.816283,
22203,沼津市,ぬまづし,沼津市役所,410-8601,沼津市御幸町16-1,055-931-2500,数値地図,35.095623,138.863475,
22205,熱海市,あたみし,熱海市役所,413-8550,熱海市中央町1-1,0557-86-6000,数値地図,35.096073,139.071651,
22206,三島市,みしまし,三島市役所,411-8666,三島市北田町4-47,055-975-3111,数値地図,35.118483,138.918636,
22207,富士宮市,ふじのみやし,富士宮市役所,418-8601,富士宮市弓沢町150,0544-22-1111,数値地図,35.222159,138.621329,
22208,伊東市,いとうし,伊東市役所,414-8555,伊東市大原二丁目1-1,0557-36-0111,数値地図,34.965756,139.10193,
22209,島田市,しまだし,島田市役所,427-8501,島田市中央町1-1,0547-37-5111,数値地図,34.836308,138.176046,
22210,富士市,ふじし,富士市役所,417-8601,富士市永田町1-100,0545-51-0123,数値地図,35.161362,138.676352,
22211,磐田市,いわたし,磐田市役所,438-8650,磐田市国府台3-1,0538-37-2111,数値地図,34.717897,137.851496,
22212,焼津市,やいづし,焼津市役所,425-8502,焼津市本町2-16-32,054-626-1111,数値地図,34.867056,138.323169,
22213,掛川市,かけがわし,掛川市役所,436-8650,掛川市長谷一丁目1番地の1,0537-21-1111,数値地図画像,34.768675,137.998516,
22214,藤枝市,ふじえだし,藤枝市役所,426-8722,藤枝市岡出山1-11-1,054-643-3111,数値地図,34.867444,138.257761,
22215,御殿場市,ごてんばし,御殿場市役所,412-8601,御殿場市萩原483,0550-83-1212,数値地図,35.308709,138.934881,
22216,袋井市,ふくろいし,袋井市役所,437-8666,袋井市新屋1-1-1,0538-43-2111,数値地図,34.750229,137.924849,
22219,下田市,しもだし,下田市役所,415-8501,下田市東本郷1-5-18,0558-22-2211,数値地図,34.679497,138.945365,
22220,裾野市,すそのし,裾野市役所,410-1192,裾野市佐野1059,055-992-1111,数値地図,35.173976,138.906748,
22221,湖西市,こさいし,湖西市役所,431-0492,湖西市吉美3268,053-576-1111,数値地図,34.718551,137.531723,
22222,伊豆市,いずし,伊豆市役所,410-2413,伊豆市小立野38-2,0558-72-1111,数値地図,34.976555,138.946831,
22223,御前崎市,おまえざきし,御前崎市役所,437-1692,御前崎市池新田5585,0537-85-1111,数値地図,34.638053,138.128057,
22224,菊川市,きくがわし,菊川市役所,439-8650,菊川市堀之内61,0537-35-2111,数値地図,34.757646,138.084198,
22225,伊豆の国市,いずのくにし,伊豆の国市役所,410-2292,伊豆の国市長岡340-1,055-948-1411,数値地図,35.027771,138.928971,
22226,牧之原市,まきのはらし,牧之原市役所,421-0495,牧之原市静波447-1,0548-23-0001,数値地図,34.739959,138.224707,榛原庁舎
22301,東伊豆町,ひがしいずちょう,東伊豆町役場,413-0411,賀茂郡東伊豆町稲取3354,0557-95-1100,数値地図,34.772769,139.041247,
22302,河津町,かわづちょう,河津町役場,413-0595,賀茂郡河津町田中212-2,0558-34-1111,数値地図,34.757074,138.987474,
22304,南伊豆町,みなみいずちょう,南伊豆町役場,415-0392,賀茂郡南伊豆町下賀茂315-1,0558-62-1111,Google Maps,34.651089,138.858533,
22305,松崎町,まつざきちょう,松崎町役場,410-3696,賀茂郡松崎町宮内301-1,0558-42-1111,数値地図,34.752933,138.778737,
22306,西伊豆町,にしいずちょう,西伊豆町役場,410-3514,賀茂郡西伊豆町仁科401-1,0558-52-1111,数値地図,34.771682,138.775264,
22325,函南町,かんなみちょう,函南町役場,419-0192,田方郡函南町平井717-13,055-978-2250,数値地図画像,35.089055,138.953205,
22341,清水町,しみずちょう,清水町役場,411-8650,駿東郡清水町堂庭210-1,055-973-1111,数値地図,35.099095,138.902861,
22342,長泉町,ながいずみちょう,長泉町役場,411-8668,駿東郡長泉町中土狩828,055-989-5500,数値地図,35.137786,138.897083,
22344,小山町,おやまちょう,小山町役場,410-1395,駿東郡小山町藤曲57-2,0550-76-1111,数値地図,35.360093,138.987345,
22424,吉田町,よしだちょう,吉田町役場,421-0395,榛原郡吉田町住吉87,0548-33-1111,数値地図,34.7709,138.252012,
22429,川根本町,かわねほんちょう,川根本町役場,428-0313,榛原郡川根本町上長尾627,0547-56-1111,数値地図,35.046919,138.081691,
22461,森町,もりまち,森町役場,437-0293,周智郡森町森2101-1,0538-85-2111,数値地図,34.835579,137.92718,
23000,愛知県,あいちけん,愛知県庁,460-8501,名古屋市中区三の丸3-1-2,052-961-2111,数値地図,35.180198,136.906739,
23100,名古屋市,なごやし,名古屋市役所,460-8508,名古屋市中区三の丸3-1-1,052-961-1111,数値地図,35.181754,136.906489,
23101,名古屋市千種区,なごやしちくさく,千種区役所,464-8644,名古屋市千種区覚王山通8-37,052-762-3111,数値地図,35.166453,136.946403,
23102,名古屋市東区,なごやしひがしく,東区役所,461-8640,名古屋市東区筒井1-7-74,052-935-2271,数値地図,35.179311,136.926071,
23103,名古屋市北区,なごやしきたく,北区役所,462-8511,名古屋市北区清水4-17-1,052-911-3131,数値地図,35.194141,136.911683,
23104,名古屋市西区,なごやしにしく,西区役所,451-8508,名古屋市西区花の木二丁目18-1,052-521-5311,数値地図,35.189309,136.890147,
23105,名古屋市中村区,なごやしなかむらく,中村区役所,453-8501,名古屋市中村区竹橋町36-31,052-451-1241,数値地図,35.168699,136.872965,
23106,名古屋市中区,なごやしなかく,中区役所,460-8447,名古屋市中区栄4-1-8,052-241-3601,数値地図,35.168673,136.910323,
23107,名古屋市昭和区,なごやししょうわく,昭和区役所,466-8585,名古屋市昭和区阿由知通3-19,052-731-1511,数値地図,35.150204,136.934044,
23108,名古屋市瑞穂区,なごやしみずほく,瑞穂区役所,467-8531,名古屋市瑞穂区瑞穂通3-32,052-841-1521,数値地図,35.131651,136.934933,
23109,名古屋市熱田区,なごやしあつたく,熱田区役所,456-8501,名古屋市熱田区神宮3-1-15,052-681-1431,数値地図画像,35.128537,136.91023,
23110,名古屋市中川区,なごやしなかがわく,中川区役所,454-8501,名古屋市中川区高畑1-223,052-362-1111,数値地図,35.141591,136.855079,
23111,名古屋市港区,なごやしみなとく,港区役所,455-8520,名古屋市港区港明1-12-20,052-651-3251,数値地図,35.107763,136.885605,
23112,名古屋市南区,なごやしみなみく,南区役所,457-8508,名古屋市南区前浜通3-10,052-811-5161,数値地図画像,35.09501,136.931299,
23113,名古屋市守山区,なごやしもりやまく,守山区役所,463-8510,名古屋市守山区小幡1-3-1,052-793-3434,数値地図,35.203282,136.976538,
23114,名古屋市緑区,なごやしみどりく,緑区役所,458-8585,名古屋市緑区青山2-15,052-621-2111,数値地図,35.070796,136.95232,
23115,名古屋市名東区,なごやしめいとうく,名東区役所,465-8508,名古屋市名東区上社2-50,052-773-1111,数値地図,35.175897,137.010147,
23116,名古屋市天白区,なごやしてんぱくく,天白区役所,468-8510,名古屋市天白区島田2-201,052-803-1111,数値地図,35.12232,136.975846,
23201,豊橋市,とよはしし,豊橋市役所,440-8501,豊橋市今橋町1,0532-51-2111,数値地図,34.769207,137.39151,
23202,岡崎市,おかざきし,岡崎市役所,444-8601,岡崎市十王町2-9,0564-23-6000,数値地図,34.954845,137.173023,
23203,一宮市,いちのみやし,一宮市役所,491-8501,一宮市本町2-5-6,0586-28-8100,数値地図,35.304126,136.802465,
23204,瀬戸市,せとし,瀬戸市役所,489-8701,瀬戸市追分町64-1,0561-82-7111,数値地図,35.223449,137.084082,
23205,半田市,はんだし,半田市役所,475-8666,半田市東洋町2-1,0569-21-3111,数値地図,34.892401,136.937827,
23206,春日井市,かすがいし,春日井市役所,486-8686,春日井市鳥居松町5-44,0568-81-5111,数値地図,35.247496,136.972176,
23207,豊川市,とよかわし,豊川市役所,442-8601,豊川市諏訪1-1,0533-89-2111,数値地図,34.826811,137.375869,
23208,津島市,つしまし,津島市役所,496-8686,津島市立込町2-21,0567-24-1111,数値地図,35.177112,136.741311,
23209,碧南市,へきなんし,碧南市役所,447-8601,碧南市松本町28,0566-41-3311,数値地図,34.884848,136.993655,
23210,刈谷市,かりやし,刈谷市役所,448-8501,刈谷市東陽町1-1,0566-23-1111,数値地図,34.988946,137.002179,
23211,豊田市,とよたし,豊田市役所,471-8501,豊田市西町3-60,0565-31-1212,数値地図,35.083386,137.156412,
23212,安城市,あんじょうし,安城市役所,446-8501,安城市桜町18-23,0566-76-1111,数値地図,34.957841,137.079616,
23213,西尾市,にしおし,西尾市役所,445-8501,西尾市寄住町下田22,0563-56-2111,数値地図,34.862491,137.062483,
23214,蒲郡市,がまごおりし,蒲郡市役所,443-8601,蒲郡市旭町17-1,0533-66-1111,数値地図,34.826389,137.21966,
23215,犬山市,いぬやまし,犬山市役所,484-8501,犬山市大字犬山字東畑36,0568-61-1800,数値地図,35.378621,136.944144,
23216,常滑市,とこなめし,常滑市役所,479-8610,常滑市新開町4-1,0569-35-5111,数値地図,34.886567,136.832422,
23217,江南市,こうなんし,江南市役所,483-8701,江南市赤童子町大堀90,0587-54-1111,数値地図,35.332125,136.870875,
23219,小牧市,こまきし,小牧市役所,485-8650,小牧市堀の内3-1,0568-72-2101,数値地図,35.290324,136.910908,
23220,稲沢市,いなざわし,稲沢市役所,492-8269,稲沢市稲府町1,0587-32-1111,数値地図,35.248049,136.780304,
23221,新城市,しんしろし,新城市役所,441-1392,新城市字東入船6-1,0536-23-1111,数値地図,34.899251,137.498495,
23222,東海市,とうかいし,東海市役所,476-8601,東海市中央町1-1,0562-33-1111,数値地図,35.022995,136.902382,
23223,大府市,おおぶし,大府市役所,474-8701,大府市中央町5-70,0562-47-2111,数値地図,35.012247,136.963182,
23224,知多市,ちたし,知多市役所,478-8601,知多市緑町1,0562-33-3151,数値地図,34.996635,136.864583,
23225,知立市,ちりゅうし,知立市役所,472-8666,知立市広見3-1,0566-83-1111,数値地図,35.001279,137.050646,
23226,尾張旭市,おわりあさひし,尾張旭市役所,488-8666,尾張旭市東大道町原田2600-1,0561-53-2111,数値地図,35.216504,137.035282,
23227,高浜市,たかはまし,高浜市役所,444-1398,高浜市青木町4-1-2,0566-52-1111,数値地図,34.927593,136.987626,
23228,岩倉市,いわくらし,岩倉市役所,482-8686,岩倉市栄町1-66,0587-66-1111,数値地図,35.279936,136.871433,
23229,豊明市,とよあけし,豊明市役所,470-1195,豊明市新田町子持松1-1,0562-92-1111,数値地図,35.053774,137.012789,
23230,日進市,にっしんし,日進市役所,470-0192,日進市蟹甲町池下268,0561-73-7111,数値地図,35.131987,137.039423,
23231,田原市,たはらし,田原市役所,441-3492,田原市田原町南番場30-1,0531-22-1111,数値地図画像,34.669011,137.263529,
23232,愛西市,あいさいし,愛西市役所,496-8555,愛西市稲葉町米野308,0567-26-8111,数値地図画像,35.15301,136.728508,
23233,清須市,きよすし,清須市役所,452-8569,清須市須ケ口1238,052-400-2911,数値地図,35.199833,136.852883,
23234,北名古屋市,きたなごやし,北名古屋市役所,481-8531,北名古屋市西之保清水田15,0568-22-1111,数値地図,35.245579,136.865963,
23235,弥富市,やとみし,弥富市役所,498-8501,弥富市前ケ須町南本田335,0567-65-1111,数値地図画像,35.110003,136.724704,
23236,みよし市,みよしし,みよし市役所,470-0295,みよし市三好町小坂50,0561-32-2111,数値地図,35.089771,137.074503,
23237,あま市,あまし,あま市役所,490-1292,あま市木田戌亥18-1,052-444-1001,数値地図,35.200526,136.783584,
23238,長久手市,ながくてし,長久手市役所,480-1196,長久手市岩作城の内60番地1,0561-63-1111,数値地図,35.184092,137.048642,
23302,東郷町,とうごうちょう,東郷町役場,470-0198,愛知郡東郷町大字春木字羽根穴1,0561-38-3111,数値地図,35.096797,137.052588,
23342,豊山町,とよやまちょう,豊山町役場,480-0292,西春日井郡豊山町大字豊場字新栄260,0568-28-0001,数値地図,35.250801,136.912125,
23361,大口町,おおぐちちょう,大口町役場,480-0144,丹羽郡大口町下小口七丁目155,0587-95-1111,数値地図,35.332429,136.907789,
23362,扶桑町,ふそうちょう,扶桑町役場,480-0102,丹羽郡扶桑町大字高雄字天道330,0587-93-1111,数値地図画像,35.359235,136.913102,
23424,大治町,おおはるちょう,大治町役場,490-1192,海部郡大治町大字馬島字大門西1-1,052-444-2711,数値地図,35.175419,136.820692,
23425,蟹江町,かにえちょう,蟹江町役場,497-8601,海部郡蟹江町学戸3-1,0567-95-1111,数値地図画像,35.132397,136.786854,
23427,飛島村,とびしまむら,飛島村役場,490-1436,海部郡飛島村竹之郷3-1,0567-52-1231,数値地図画像,35.0788,136.7913,
23441,阿久比町,あぐいちょう,阿久比町役場,470-2292,知多郡阿久比町大字卯坂字殿越50,0569-48-1111,数値地図,34.932591,136.915607,
23442,東浦町,ひがしうらちょう,東浦町役場,470-2192,知多郡東浦町大字緒川字政所20,0562-83-3111,数値地図,34.977113,136.965654,
23445,南知多町,みなみちたちょう,南知多町役場,470-3495,知多郡南知多町大字豊浜字貝ヶ坪18,0569-65-0711,数値地図,34.715197,136.929833,
23446,美浜町,みはまちょう,美浜町役場,470-2492,知多郡美浜町大字河和字北田面106,0569-82-1111,数値地図,34.778939,136.908195,
23447,武豊町,たけとよちょう,武豊町役場,470-2392,知多郡武豊町字長尾山2,0569-72-1111,数値地図,34.851264,136.914859,
23501,幸田町,こうたちょう,幸田町役場,444-0192,額田郡幸田町大字菱池字元林1-1,0564-62-1111,数値地図,34.864577,137.165666,
23561,設楽町,したらちょう,設楽町役場,441-2301,北設楽郡設楽町田口字辻前14,0536-62-0511,Google Maps,35.097237,137.571438,
23562,東栄町,とうえいちょう,東栄町役場,449-0292,北設楽郡東栄町大字本郷字上前畑25,0536-76-0501,数値地図,35.07693,137.697833,
23563,豊根村,とよねむら,豊根村役場,449-0403,北設楽郡豊根村下黒川字蕨平2,0536-85-1311,数値地図,35.146451,137.719719,
24000,三重県,みえけん,三重県庁,514-8570,津市広明町13,059-224-3070,数値地図,34.730268,136.508594,
24201,津市,つし,津市役所,514-8611,津市西丸之内23-1,059-229-3111,数値地図,34.718576,136.505511,
